{"current":{"color_text":"#3d4246","color_body_text":"#69727b","color_sale_text":"#557b97","color_button":"#557b97","color_button_text":"#fff","color_small_button_text_border":"#3d4246","color_text_field_text":"#000","color_text_field_border":"#949494","color_text_field":"#fff","color_image_overlay_text":"#fff","color_image_overlay":"#3d4246","image_overlay_opacity":40,"color_borders":"#e8e9eb","color_body_bg":"#fff","type_header_font":"work_sans_n6","type_header_base_size":26,"type_base_font":"work_sans_n4","type_base_size":16,"type_bold_product_titles":false,"share_image":"","share_facebook":true,"share_twitter":true,"share_pinterest":true,"social_twitter_link":"","social_facebook_link":"","social_pinterest_link":"","social_instagram_link":"","social_tumblr_link":"","social_snapchat_link":"","social_youtube_link":"","social_vimeo_link":"","newsletter_text":"<p><a title=\"Signup\" href=\"\/pages\/signup\" target=\"_blank\">Subscribe<\/a> to our newsletter and receive news from Lacoste or <a title=\"https:\/\/lacoste.us19.list-manage.com\/unsubscribe?u=cc63dfd8a4e47af4920003e42&amp;id=7dc3a98839\" href=\"https:\/\/lacoste.us19.list-manage.com\/unsubscribe?u=cc63dfd8a4e47af4920003e42&amp;id=7dc3a98839\" target=\"_blank\">unsubscribe<\/a><\/p>","favicon":"","checkout_header_image":"","checkout_logo_image":"","checkout_logo_position":"left","checkout_logo_size":"medium","checkout_body_background_image":"","checkout_body_background_color":"#fff","checkout_input_background_color_mode":"white","checkout_sidebar_background_image":"","checkout_sidebar_background_color":"#fafafa","checkout_heading_font":"-apple-system, BlinkMacSystemFont, 'Segoe UI', Roboto, Helvetica, Arial, sans-serif, 'Apple Color Emoji', 'Segoe UI Emoji', 'Segoe UI Symbol'","checkout_body_font":"-apple-system, BlinkMacSystemFont, 'Segoe UI', Roboto, Helvetica, Arial, sans-serif, 'Apple Color Emoji', 'Segoe UI Emoji', 'Segoe UI Symbol'","checkout_accent_color":"#197bbd","checkout_button_color":"#197bbd","checkout_error_color":"#e32c2b","sections":{"header":{"type":"header","settings":{"align_logo":"left","logo":"","logo_max_width":100,"main_linklist":"main-menu","message":false,"home_page_only":true,"message_text":"Announce something here","message_link":"","color_bg":"#7796a8","color_text":"#fff"}},"1547978834047":{"type":"home-hero","disabled":true,"settings":{"desk_video":"https:\/\/cdn.shopify.com\/s\/files\/1\/0233\/9713\/8496\/files\/lacoste-crocoseries-cover-desk.mp4?v=1590971211","mob_video":"https:\/\/cdn.shopify.com\/s\/files\/1\/0233\/9713\/8496\/files\/SS20_GroupShot_120_R2_CROCOSERIES.jpg?v=1594263051","title":"#Crocoseries collection","sub_txt":"","men_text":"Shop now","men_link":"http:\/\/laco.st\/eHJDgNqL"}},"1547979810678":{"type":"home-collection-slider","blocks":{"1547979810678-1":{"type":"image","settings":{"slide_title":"Men’s Polos","url":"shopify:\/\/collections\/mens-polo"}},"1547979810678-0":{"type":"image","settings":{"slide_title":"Lacoste L!VE Collection","url":"shopify:\/\/collections\/lacoste-live"}},"1547983382864":{"type":"image","settings":{"slide_title":"Women’s Polos","url":"shopify:\/\/collections\/womens-polos"}},"1547983397475":{"type":"image","settings":{"slide_title":"Sport for Him","url":"shopify:\/\/collections\/mens-sports-clothing"}}},"block_order":["1547979810678-1","1547979810678-0","1547983382864","1547983397475"],"settings":{"title":"The Latest Looks"}},"1547987835963":{"type":"home-feature-block","disabled":true,"settings":{"title":"Sale Final Markdowns","text":"Up to 50% off","button_link":"#"}},"1547990401868":{"type":"featured-collections-grid","blocks":{"1547992290185":{"type":"image","settings":{"block_link":"shopify:\/\/collections\/mens-shoes","box_title":"Men"}},"1547992303111":{"type":"image","settings":{"block_link":"shopify:\/\/collections\/womens-shoes","box_title":"Women"}}},"block_order":["1547992290185","1547992303111"],"settings":{"title":"Get Inspired: your style, your trainers"}},"1547993616737":{"type":"home-marketing-block","disabled":true,"settings":{"title":"Lacoste x Novak Djokovic","subtext":"100% tenacity. 100% crocodile.","button_text":"Discover more","button_url":"shopify:\/\/pages\/novak-djokovic-collection","mob_color":"#cc3c3b","desk_color":"#cc3c3b"}},"store-finder":{"type":"store-finder","blocks":{"1553141315517":{"type":"text","settings":{"title":"Lacoste - Glorietta 4 - Accessories","city":"Makati","zip":"1226","address":"G\/F Glorietta 4, Ayala Center","lat":"14.5508456","lng":"121.0246205","state":"NCR","description":"","phone":"8-892-8213","email":"null","mon_hrs":"10:00 - 21:00","tue_hrs":"10:00 - 21:00","wed_hrs":"10:00 - 21:00","thu_hrs":"10:00 - 21:00","fri_hrs":"10:00 - 21:00","sat_hrs":"10:00 - 21:00","sun_hrs":"10:00 - 21:00","country":"PH"}},"1553141969733":{"type":"text","settings":{"title":"Lacoste - Greenbelt 3","city":"MAKATI CITY","zip":"1226","address":"GROUND LEVEL, GREENBELT 3, AYALA CENTER,","lat":"14.55186111","lng":"121.0219444","state":"NCR","description":"","phone":"+632 757 4575","email":"null","mon_hrs":"10:00 - 21:00","tue_hrs":"10:00 - 21:00","wed_hrs":"10:00 - 21:00","thu_hrs":"10:00 - 21:00","fri_hrs":"10:00 - 21:00","sat_hrs":"10:00 - 21:00","sun_hrs":"10:00 - 21:00","country":"PH"}},"1553142120408":{"type":"text","settings":{"title":"Lacoste - Rockwell","city":"Makati","zip":"1209","address":"LEVEL R1  Power Plant, Rockwell Center","lat":"14.5652777","lng":"121.0361111","state":"NCR","description":"","phone":"898-1464","email":"null","mon_hrs":"10:00 - 21:00","tue_hrs":"10:00 - 21:00","wed_hrs":"10:00 - 21:00","thu_hrs":"10:00 - 21:00","fri_hrs":"10:00 - 21:00","sat_hrs":"10:00 - 21:00","sun_hrs":"10:00 - 21:00","country":"PH"}},"1553142480738":{"type":"text","settings":{"title":"Lacoste - Robinson's Place Manila","city":"Manila","zip":"1000","address":"Level 2, M. Adriatico cor Pedro Gil Ave., Robinsons Place, Malate","lat":"14.57647222","lng":"120.9836111","state":"NCR","description":"","phone":"8-536-2614","email":"null","mon_hrs":"10:00 - 21:00","tue_hrs":"10:00 - 21:00","wed_hrs":"10:00 - 21:00","thu_hrs":"10:00 - 21:00","fri_hrs":"10:00 - 21:00","sat_hrs":"10:00 - 21:00","sun_hrs":"10:00 - 21:00","country":"PH"}},"1553143205734":{"type":"text","settings":{"title":"Lacoste - Gateway Mall","city":"Quezon City","zip":"1100","address":"Ground Level, Gateway Mall , Araneta Center, Cubao","lat":"14.621024","lng":"121.0519268","state":"","description":"","phone":"8-913-3609","email":"null","mon_hrs":"10:00 - 21:00","tue_hrs":"10:00 - 21:00","wed_hrs":"10:00 - 21:00","thu_hrs":"10:00 - 21:00","fri_hrs":"10:00 - 21:00","sat_hrs":"10:00 - 21:00","sun_hrs":"10:00 - 21:00","country":"PH"}},"1553143858584":{"type":"text","settings":{"title":"Lacoste - Eastwood Mall","city":"Quezon City","zip":"1110","address":"Ground Level, Eastwood Mall, Eastwood City, E Rodriguez Jr. Ave.","lat":"14.61055556","lng":"121.08000000","state":"","description":"","phone":"+632 706 5065; +632 706 4805","email":"null","mon_hrs":"10:00 - 21:00","tue_hrs":"10:00 - 21:00","wed_hrs":"10:00 - 21:00","thu_hrs":"10:00 - 21:00","fri_hrs":"10:00 - 21:00","sat_hrs":"10:00 - 21:00","sun_hrs":"10:00 - 21:00","country":"PH"}},"1553143972406":{"type":"text","settings":{"title":"Lacoste - Fairview Terraces","city":"Quezon City","zip":"1118","address":"Upper Ground Floor, Fairview Terraces","lat":"14.73738889","lng":"121.0602778","state":"","description":"","phone":"8-366-1217","email":"null","mon_hrs":"10:00 - 21:00","tue_hrs":"10:00 - 21:00","wed_hrs":"10:00 - 21:00","thu_hrs":"10:00 - 21:00","fri_hrs":"10:00 - 21:00","sat_hrs":"10:00 - 21:00","sun_hrs":"10:00 - 21:00","country":"PH"}},"1553146896312":{"type":"text","settings":{"title":"Lacoste - U.P. Town Center","city":"Quezon City","zip":"1108","address":"Ground floor,\/Phase 2, UP Town Center, Katipunan Ave, Diliman","lat":"14.655200","lng":"121.074562","state":"","description":"","phone":"364-0164","email":"null","mon_hrs":"10:00 - 21:00","tue_hrs":"10:00 - 21:00","wed_hrs":"10:00 - 21:00","thu_hrs":"10:00 - 21:00","fri_hrs":"10:00 - 21:00","sat_hrs":"10:00 - 21:00","sun_hrs":"10:00 - 21:00","country":"PH"}},"1553147098777":{"type":"text","settings":{"title":"Lacoste - Robinsons Galleria, Edsa Corner Ortigas, Quezon City","city":"Pasig","zip":"1110","address":"L2 Main Mall, Robinson's Galleria, EDSA cor Ortigas Ave.","lat":"14.59108333","lng":"121.0597222","state":"NCR","description":"","phone":"8-632-0517","email":"null","mon_hrs":"10:00 - 21:00","tue_hrs":"10:00 - 21:00","wed_hrs":"10:00 - 21:00","thu_hrs":"10:00 - 21:00","fri_hrs":"10:00 - 21:00","sat_hrs":"10:00 - 21:00","sun_hrs":"10:00 - 21:00","country":"PH"}},"1553147221734":{"type":"text","settings":{"title":"Lacoste - SM Mall of Asia","city":"Pasay","zip":"1300","address":"2nd Level, Main Mall Building, SM Mall of Asia, Bay Blvd","lat":"14.53525","lng":"120.9819444","state":"NCR","description":"","phone":"8-556-0462; 8-556-0453","email":"null","mon_hrs":"10:00 - 21:00","tue_hrs":"10:00 - 21:00","wed_hrs":"10:00 - 21:00","thu_hrs":"10:00 - 21:00","fri_hrs":"10:00 - 21:00","sat_hrs":"10:00 - 21:00","sun_hrs":"10:00 - 21:00","country":"PH"}},"1553147293858":{"type":"text","settings":{"title":"Lacoste - Newport Mall Resorts World Manila","city":"Pasay","zip":"1309","address":"G\/F Newport Mall, Newport City, Andrews Ave.","lat":"14.51877778","lng":"121.0194444","state":"NCR","description":"","phone":"7-621-7142; 7-621-7143","email":"null","mon_hrs":"10:00 - 21:00","tue_hrs":"10:00 - 21:00","wed_hrs":"10:00 - 21:00","thu_hrs":"10:00 - 21:00","fri_hrs":"10:00 - 21:00","sat_hrs":"10:00 - 21:00","sun_hrs":"10:00 - 21:00","country":"PH"}},"1553147394263":{"type":"text","settings":{"title":"Lacoste - Central Square","city":"TAGUIG CITY","zip":"","address":"2nd floor, Central Square, 5th Avenue, BHS Central, Bonifacio Global City","lat":"14.55166667","lng":"121.0486111","state":"","description":"","phone":"+632 958 5291","email":"null","mon_hrs":"10:00 - 21:00","tue_hrs":"10:00 - 21:00","wed_hrs":"10:00 - 21:00","thu_hrs":"10:00 - 21:00","fri_hrs":"10:00 - 21:00","sat_hrs":"10:00 - 21:00","sun_hrs":"10:00 - 21:00","country":"PH"}},"1553147538072":{"type":"text","settings":{"title":"Lacoste - SM MegaMall","city":"Mandaluyong","zip":"1555","address":"2\/F Bldg. B, SM Megamall, Dona Julia Vargas Ave. corner EDSA","lat":"14.584470","lng":"121.057820","state":"","description":"","phone":"8-655-8716","email":"null","mon_hrs":"10:00 - 21:00","tue_hrs":"10:00 - 21:00","wed_hrs":"10:00 - 21:00","thu_hrs":"10:00 - 21:00","fri_hrs":"10:00 - 21:00","sat_hrs":"10:00 - 21:00","sun_hrs":"10:00 - 21:00","country":"PH"}},"1553147649031":{"type":"text","settings":{"title":"Lacoste - Shangri-la Plaza, Mandaluyong City","city":"MANDALUYONG CITY","zip":"1552","address":"UNIT 2334 L2 EAST WING SHANGRI-LA PLAZA BRGY WACKWACK EDSA COR SHAW BLVD.,","lat":"14.58075","lng":"121.0552778","state":"NCR","description":"","phone":"","email":"null","mon_hrs":"10:00 - 21:00","tue_hrs":"10:00 - 21:00","wed_hrs":"10:00 - 21:00","thu_hrs":"10:00 - 21:00","fri_hrs":"10:00 - 21:00","sat_hrs":"10:00 - 21:00","sun_hrs":"10:00 - 21:00","country":"PH"}},"1553147739719":{"type":"text","settings":{"title":"Lacoste - Podium","city":"Pasig","zip":"1550","address":"2nd Level - The Podium, 18 ADB AVE, Ortigas Center","lat":"14.58591667","lng":"121.0594444","state":"NCR","description":"","phone":"8-655-9483","email":"null","mon_hrs":"10:00 - 21:00","tue_hrs":"10:00 - 21:00","wed_hrs":"10:00 - 21:00","thu_hrs":"10:00 - 21:00","fri_hrs":"10:00 - 21:00","sat_hrs":"10:00 - 21:00","sun_hrs":"10:00 - 21:00","country":"PH"}},"1553147824663":{"type":"text","settings":{"title":"Lacoste - Okada","city":"Paranaque","zip":"1701","address":"New Seaside Drive, Entertainment City, Brgy Tambo, Paranaque City","lat":"14.50119444","lng":"120.9997222","state":"NCR","description":"","phone":"","email":"null","mon_hrs":"10:00 - 21:00","tue_hrs":"10:00 - 21:00","wed_hrs":"10:00 - 21:00","thu_hrs":"10:00 - 21:00","fri_hrs":"10:00 - 21:00","sat_hrs":"10:00 - 21:00","sun_hrs":"10:00 - 21:00","country":"PH"}},"1553147932501":{"type":"text","settings":{"title":"Lacoste - Alabang Town Center (Corte de las Palmas)","city":"MUNTINLUPA CITY","zip":"","address":"G\/F CORTE DE LAS PALMAS, ALABANG TOWN CENTER,","lat":"14.4209586","lng":"121.0293677","state":"NCR","description":"","phone":"+632 850 5816 ; +632 807 7966","email":"null","mon_hrs":"10:00 - 21:00","tue_hrs":"10:00 - 21:00","wed_hrs":"10:00 - 21:00","thu_hrs":"10:00 - 21:00","fri_hrs":"10:00 - 21:00","sat_hrs":"10:00 - 21:00","sun_hrs":"10:00 - 21:00","country":"PH"}},"1553148042886":{"type":"text","settings":{"title":"Lacoste - Estancia Mall","city":"Pasig","zip":"1603","address":"Ground floor, Estancia Mall, Meralco Ave","lat":"14.57663889","lng":"121.0638889","state":"NCR","description":"","phone":"8-696-0159; 8-696-0157","email":"null","mon_hrs":"10:00 - 21:00","tue_hrs":"10:00 - 21:00","wed_hrs":"10:00 - 21:00","thu_hrs":"10:00 - 21:00","fri_hrs":"10:00 - 21:00","sat_hrs":"10:00 - 21:00","sun_hrs":"10:00 - 21:00","country":"PH"}},"1553148139060":{"type":"text","settings":{"title":"Lacoste - Abreeza Davao","city":"DAVAO CITY","zip":"","address":"UNIT 1077 G\/F ABREEZA MALL, J. P. LAUREL AVE. BAJADA","lat":"7.09102778","lng":"125.6113889","state":"REGION 11","description":"","phone":"+6382 321 6134","email":"null","mon_hrs":"10:00 - 21:00","tue_hrs":"10:00 - 21:00","wed_hrs":"10:00 - 21:00","thu_hrs":"10:00 - 21:00","fri_hrs":"10:00 - 21:00","sat_hrs":"10:00 - 21:00","sun_hrs":"10:00 - 21:00","country":"PH"}},"1553148267981":{"type":"text","settings":{"title":"Lacoste - Limketkai Mall, Cagayan De Oro City","city":"Cagayan De Oro","zip":"9000","address":"2F Limketkai Mall, East Concourse, Limketkai Center","lat":"8.48152778","lng":"124.6561111","state":"","description":"","phone":"(088) 8-56 8285","email":"null","mon_hrs":"10:00 - 21:00","tue_hrs":"10:00 - 21:00","wed_hrs":"10:00 - 21:00","thu_hrs":"10:00 - 21:00","fri_hrs":"10:00 - 21:00","sat_hrs":"10:00 - 21:00","sun_hrs":"10:00 - 21:00","country":"PH"}},"1553148408494":{"type":"text","settings":{"title":"Lacoste - Harbor Point Mall","city":"Olongapo","zip":"2200","address":"Subic Bay Town Center, Rizal Highway, Subic Bay Freeport Zone","lat":"14.82475","lng":"120.2802778","state":"","description":"","phone":"(047) 8-251-1099","email":"null","mon_hrs":"10:00 - 21:00","tue_hrs":"10:00 - 21:00","wed_hrs":"10:00 - 21:00","thu_hrs":"10:00 - 21:00","fri_hrs":"10:00 - 21:00","sat_hrs":"10:00 - 21:00","sun_hrs":"10:00 - 21:00","country":"PH"}},"1553148503077":{"type":"text","settings":{"title":"Lacoste - SM City Baguio","city":"Baguio","zip":"","address":"Upper Ground Floor, SM City Baguio, Luneta Hill, Upper Session Road","lat":"16.41016667","lng":"120.5994444","state":"","description":"","phone":"8-955-1830; 8-955-1854","email":"null","mon_hrs":"10:00 - 21:00","tue_hrs":"10:00 - 21:00","wed_hrs":"10:00 - 21:00","thu_hrs":"10:00 - 21:00","fri_hrs":"10:00 - 21:00","sat_hrs":"10:00 - 21:00","sun_hrs":"10:00 - 21:00","country":"PH"}},"1553148600691":{"type":"text","settings":{"title":"Lacoste - Marquee Mall, Pampanga","city":"Angeles","zip":"2009","address":"G\/F Marquee Mall, 2135, Aniceto Gueco St, Angeles, 2009 Pampanga","lat":"15.16319444","lng":"120.6094444","state":"","description":"","phone":"(045) 7-304-0562","email":"null","mon_hrs":"10:00 - 21:00","tue_hrs":"10:00 - 21:00","wed_hrs":"10:00 - 21:00","thu_hrs":"10:00 - 21:00","fri_hrs":"10:00 - 21:00","sat_hrs":"10:00 - 21:00","sun_hrs":"10:00 - 21:00","country":"PH"}},"1553148672839":{"type":"text","settings":{"title":"Lacoste - Robinson's Starmills Pampanga","city":"Pampanga","zip":"2000","address":"L01-161 A , Robinson’s Starmills, San Fernando,  Pampanga","lat":"15.04927778","lng":"120.6975","state":"","description":"","phone":"(045) 8-636-3532","email":"null","mon_hrs":"10:00 - 21:00","tue_hrs":"10:00 - 21:00","wed_hrs":"10:00 - 21:00","thu_hrs":"10:00 - 21:00","fri_hrs":"10:00 - 21:00","sat_hrs":"10:00 - 21:00","sun_hrs":"10:00 - 21:00","country":"PH"}},"1553149009459":{"type":"text","settings":{"title":"Lacoste - KCC Mall De Zamboanga","city":"Zamboanga","zip":"","address":"Ground Floor, KCC mall De Zamboanga, Gov. Camins Road","lat":"6.92091667","lng":"122.0733333","state":"","description":"","phone":"+6388 856 8285","email":"null","mon_hrs":"10:00 - 21:00","tue_hrs":"10:00 - 21:00","wed_hrs":"10:00 - 21:00","thu_hrs":"10:00 - 21:00","fri_hrs":"10:00 - 21:00","sat_hrs":"10:00 - 21:00","sun_hrs":"10:00 - 21:00","country":"PH"}},"1553149095760":{"type":"text","settings":{"title":"Lacoste - Ayala Cebu","city":"Cebu City","zip":"6000","address":"Level 1 - Ayala Center, Cebu Business Park","lat":"10.31813889","lng":"123.9052778","state":"","description":"","phone":"+632 234 1038","email":"null","mon_hrs":"10:00 - 21:00","tue_hrs":"10:00 - 21:00","wed_hrs":"10:00 - 21:00","thu_hrs":"10:00 - 21:00","fri_hrs":"10:00 - 21:00","sat_hrs":"10:00 - 21:00","sun_hrs":"10:00 - 21:00","country":"PH"}},"1553149179883":{"type":"text","settings":{"title":"Lacoste - Ayala Malls, Legazpi City","city":"Legazpi","zip":"4500","address":"Ayala Malls Legazpi Rizal St., cor Quezon Ave., Brgy. Capanatawan, Legazpi City","lat":"13.15730556","lng":"123.7508333","state":"","description":"","phone":"+6352 742 1645","email":"null","mon_hrs":"10:00 - 21:00","tue_hrs":"10:00 - 21:00","wed_hrs":"10:00 - 21:00","thu_hrs":"10:00 - 21:00","fri_hrs":"10:00 - 21:00","sat_hrs":"10:00 - 21:00","sun_hrs":"10:00 - 21:00","country":"PH"}},"1553149295289":{"type":"text","settings":{"title":"Lacoste - Robinsons Place, San Nicolas Ilocos Norte","city":"ILOCOS NORTE","zip":"2901","address":"LEVEL 1 SPACE 147-148, ROBINSONS PLCAE, SAN FRANCISCO (POB.) SAN NICOLAS,","lat":"18.17983333","lng":"120.5925","state":"","description":"","phone":"","email":"null","mon_hrs":"10:00 - 21:00","tue_hrs":"10:00 - 21:00","wed_hrs":"10:00 - 21:00","thu_hrs":"10:00 - 21:00","fri_hrs":"10:00 - 21:00","sat_hrs":"10:00 - 21:00","sun_hrs":"10:00 - 21:00","country":"PH"}},"1556073076525":{"type":"text","settings":{"title":"Lacoste - Ayala Cebu - Sport","city":"Cebu City","zip":"6000","address":"Stall L119, Level 1 - Ayala Center Cebu Expansion, Cebu Business Park","lat":"10.319040","lng":"123.905116","state":"","description":"","phone":"","email":"null","mon_hrs":"10:00 - 21:00","tue_hrs":"10:00 - 21:00","wed_hrs":"10:00 - 21:00","thu_hrs":"10:00 - 21:00","fri_hrs":"10:00 - 21:00","sat_hrs":"10:00 - 21:00","sun_hrs":"10:00 - 21:00","country":"PH"}},"1556074797392":{"type":"text","settings":{"title":"Lacoste - Glorietta 2 - L!VE","city":"Makati","zip":"1226","address":"G\/F Glorietta 2, Ayala Center","lat":"14.55219444","lng":"121.0258333","state":"","description":"","phone":"7-625-4830","email":"null","mon_hrs":"10:00 - 21:00","tue_hrs":"10:00 - 21:00","wed_hrs":"10:00 - 21:00","thu_hrs":"10:00 - 21:00","fri_hrs":"10:00 - 21:00","sat_hrs":"10:00 - 21:00","sun_hrs":"10:00 - 21:00","country":"PH"}},"1556076006085":{"type":"text","settings":{"title":"Lacoste - KCC Veranza","city":"General Santos","zip":"9500","address":"G\/F Veranza KCC Mall, General Santos City","lat":"6.13173","lng":"125.13028","state":"","description":"","phone":"+6383 301 5478","email":"null","mon_hrs":"10:00 - 21:00","tue_hrs":"10:00 - 21:00","wed_hrs":"10:00 - 21:00","thu_hrs":"10:00 - 21:00","fri_hrs":"10:00 - 21:00","sat_hrs":"10:00 - 21:00","sun_hrs":"10:00 - 21:00","country":"PH"}},"1556076498994":{"type":"text","settings":{"title":"Lacoste - Kiss & Fly Terminal 3","city":"Pasay","zip":"1301","address":"Level 3, NAIA Terminal 3","lat":"14.52097","lng":"121.01503","state":"","description":"","phone":"+632 551 8453","email":"null","mon_hrs":"10:00 - 21:00","tue_hrs":"10:00 - 21:00","wed_hrs":"10:00 - 21:00","thu_hrs":"10:00 - 21:00","fri_hrs":"10:00 - 21:00","sat_hrs":"10:00 - 21:00","sun_hrs":"10:00 - 21:00","country":"PH"}},"1556081081820":{"type":"text","settings":{"title":"Lacoste - Rustan's Makati (Kids)","city":"City","zip":"1224","address":"4F Rustan's Department Store Ayala Avenue, Ayala Center, Makati City","lat":"14.5512839","lng":"121.0086555","state":"","description":"","phone":"+632 633 7598","email":"null","mon_hrs":"10:00 - 21:00","tue_hrs":"10:00 - 21:00","wed_hrs":"10:00 - 21:00","thu_hrs":"10:00 - 21:00","fri_hrs":"10:00 - 21:00","sat_hrs":"10:00 - 21:00","sun_hrs":"10:00 - 21:00","country":"PH"}},"1556081205388":{"type":"text","settings":{"title":"Lacoste - Rustan's Makati (Ladies)","city":"","zip":"1224","address":"3F Rustan's Department Store Ayala Avenue, Ayala Center, Makati City","lat":"14.5665371","lng":"121.0280715","state":"","description":"","phone":"+632 817 6169","email":"null","mon_hrs":"10:00 - 21:00","tue_hrs":"10:00 - 21:00","wed_hrs":"10:00 - 21:00","thu_hrs":"10:00 - 21:00","fri_hrs":"10:00 - 21:00","sat_hrs":"10:00 - 21:00","sun_hrs":"10:00 - 21:00","country":"PH"}},"1556081304569":{"type":"text","settings":{"title":"Lacoste - Rustan's Makati (Men's)","city":"","zip":"1552","address":"2F Rustan's Department Store Ayala Avenue, Ayala Center, Makati City","lat":"14.5660265","lng":"121.0253832","state":"","description":"","phone":"+632 867 22 12","email":"null","mon_hrs":"10:00 - 21:00","tue_hrs":"10:00 - 21:00","wed_hrs":"10:00 - 21:00","thu_hrs":"10:00 - 21:00","fri_hrs":"10:00 - 21:00","sat_hrs":"10:00 - 21:00","sun_hrs":"10:00 - 21:00","country":"PH"}},"1556081573334":{"type":"text","settings":{"title":"Lacoste - Rustan's Tower (Shangrila) - L!VE","city":"","zip":"1552","address":"4F Rustan's Department Store, Shangri-La Plaza, Shaw Bvd. Cor EDSA, Mandaluyong City","lat":"14.5818064","lng":"121.0525928","state":"","description":"","phone":"+632 631 6047","email":"null","mon_hrs":"10:00 - 21:00","tue_hrs":"10:00 - 21:00","wed_hrs":"10:00 - 21:00","thu_hrs":"10:00 - 21:00","fri_hrs":"10:00 - 21:00","sat_hrs":"10:00 - 21:00","sun_hrs":"10:00 - 21:00","country":"PH"}},"1556081733753":{"type":"text","settings":{"title":"Lacoste - Rustan's Tower (Shangrila)","city":"","zip":"1552","address":"1F Rustan's Department Store, Shangri-la Plaza, Shaw Blvd. Cor EDSA, Mandaluyong City","lat":"14.581551","lng":"121.054646","state":"","description":"","phone":"+632 633 4449; +632 638 7894","email":"null","mon_hrs":"10:00 - 21:00","tue_hrs":"10:00 - 21:00","wed_hrs":"10:00 - 21:00","thu_hrs":"10:00 - 21:00","fri_hrs":"10:00 - 21:00","sat_hrs":"10:00 - 21:00","sun_hrs":"10:00 - 21:00","country":"PH"}},"1556081875417":{"type":"text","settings":{"title":"Lacoste - Rustan's Tower (Shangrila) Kids","city":"","zip":"1552","address":"3F Rustan's Department Store, Shangri-la Plaza, Shaw Blvd. Cor EDSA, Mandaluyong City","lat":"14.5818064","lng":"121.0525928","state":"","description":"<p>Use this text to share information about your brand with your customers. Describe a product, share announcements, or welcome customers to your store.<\/p>","phone":"+632 633 75 98","email":"null","mon_hrs":"10:00 - 21:00","tue_hrs":"10:00 - 21:00","wed_hrs":"10:00 - 21:00","thu_hrs":"10:00 - 21:00","fri_hrs":"10:00 - 21:00","sat_hrs":"10:00 - 21:00","sun_hrs":"10:00 - 21:00","country":"PH"}},"1556082365196":{"type":"text","settings":{"title":"Lacoste - Shangrila - East Wing","city":"Mandaluyong","zip":"1552","address":"2nd Floor, Shangrila One East Wing","lat":"14.581039","lng":"121.055193","state":"","description":"","phone":"955-1830; 955-1854","email":"null","mon_hrs":"10:00 - 21:00","tue_hrs":"10:00 - 21:00","wed_hrs":"10:00 - 21:00","thu_hrs":"10:00 - 21:00","fri_hrs":"10:00 - 21:00","sat_hrs":"10:00 - 21:00","sun_hrs":"10:00 - 21:00","country":"PH"}},"1556082592541":{"type":"text","settings":{"title":"Lacoste - SM Davao","city":"Davao","zip":"8000","address":"G\/F SM City Davao, Quimpo Blvd, Ecoland","lat":"7.050244","lng":"125.587954","state":"","description":"","phone":"(+63)  (082) 7-298-4775","email":"null","mon_hrs":"10:00 - 21:00","tue_hrs":"10:00 - 21:00","wed_hrs":"10:00 - 21:00","thu_hrs":"10:00 - 21:00","fri_hrs":"10:00 - 21:00","sat_hrs":"10:00 - 21:00","sun_hrs":"10:00 - 21:00","country":"PH"}},"1580281989435":{"type":"text","settings":{"title":"Lacoste - ATC Footwear","city":"Muntinlupa City","zip":"Zip Code","address":"G\/F Corte De Las Palmas, Alabang Town Center","lat":"14.423147","lng":"121.029189","state":"","description":"","phone":"","email":"null","mon_hrs":"10:00 - 21:00","tue_hrs":"10:00 - 21:00","wed_hrs":"10:00 - 21:00","thu_hrs":"10:00 - 21:00","fri_hrs":"10:00 - 21:00","sat_hrs":"10:00 - 21:00","sun_hrs":"10:00 - 21:00","country":"PH"}},"1580288478900":{"type":"text","settings":{"title":"Lacoste - Greenbelt 5","city":"Makati","zip":"1226","address":"Unit 1-013, Ground Floor, Greenbelt 5, Ayala Center, Makati City","lat":"14.553852","lng":"121.022608","state":"","description":"<p>Use this text to share information about your brand with your customers. Describe a product, share announcements, or welcome customers to your store.<\/p>","phone":"7-746-1364","email":"null","mon_hrs":"10:00 - 21:00","tue_hrs":"10:00 - 21:00","wed_hrs":"10:00 - 21:00","thu_hrs":"10:00 - 21:00","fri_hrs":"10:00 - 21:00","sat_hrs":"10:00 - 21:00","sun_hrs":"10:00 - 21:00","country":"PH"}},"1580288876398":{"type":"text","settings":{"title":"Lacoste - Robinsons Magnolia","city":"City","zip":"1100","address":"G\/F Magnolia Town Center, Dona Hemady St. corner Aurora Boulevard","lat":"14.614415","lng":"121.037623","state":"","description":"","phone":"7-955-2208","email":"null","mon_hrs":"10:00 - 21:00","tue_hrs":"10:00 - 21:00","wed_hrs":"10:00 - 21:00","thu_hrs":"10:00 - 21:00","fri_hrs":"10:00 - 21:00","sat_hrs":"10:00 - 21:00","sun_hrs":"10:00 - 21:00","country":"PH"}},"1580289264560":{"type":"text","settings":{"title":"Lacoste - Trinoma","city":"Quezon City","zip":"1100","address":"Level M3, Trinoma North Triangle, EDSA corner North Ave.","lat":"14.6536658","lng":"121.0315628","state":"","description":"","phone":"7-901-36-64; 7-943-20-14","email":"null","mon_hrs":"10:00 - 21:00","tue_hrs":"10:00 - 21:00","wed_hrs":"10:00 - 21:00","thu_hrs":"10:00 - 21:00","fri_hrs":"10:00 - 21:00","sat_hrs":"10:00 - 21:00","sun_hrs":"10:00 - 21:00","country":"PH"}},"1580289346815":{"type":"text","settings":{"title":"Lacoste - Solaire","city":"Parañaque City","zip":"Zip Code","address":"G\/F The Shoppes Solaire, 1 Asean Avenue, Entertainment City, Tambo, Parañaque City","lat":"14.5238934","lng":"120.9786784","state":"","description":"","phone":"","email":"null","mon_hrs":"10:00 - 21:00","tue_hrs":"10:00 - 21:00","wed_hrs":"10:00 - 21:00","thu_hrs":"10:00 - 21:00","fri_hrs":"10:00 - 21:00","sat_hrs":"10:00 - 21:00","sun_hrs":"10:00 - 21:00","country":"PH"}},"1580289428067":{"type":"text","settings":{"title":"Lacoste - Waterfront Cebu Hotel","city":"Lahug","zip":"Zip Code","address":"G\/F Lobby Shoppes 1, Waterfront Cebu Hotel & Casino, Brgy. Lahug, Salinas Dr, Cebu City","lat":"0","lng":"0","state":"","description":"","phone":"","email":"null","mon_hrs":"10:00 - 21:00","tue_hrs":"10:00 - 21:00","wed_hrs":"10:00 - 21:00","thu_hrs":"10:00 - 21:00","fri_hrs":"10:00 - 21:00","sat_hrs":"10:00 - 21:00","sun_hrs":"10:00 - 21:00","country":"PH"}}},"block_order":["1553141315517","1553141969733","1553142120408","1553142480738","1553143205734","1553143858584","1553143972406","1553146896312","1553147098777","1553147221734","1553147293858","1553147394263","1553147538072","1553147649031","1553147739719","1553147824663","1553147932501","1553148042886","1553148139060","1553148267981","1553148408494","1553148503077","1553148600691","1553148672839","1553149009459","1553149095760","1553149179883","1553149295289","1556073076525","1556074797392","1556076006085","1556076498994","1556081081820","1556081205388","1556081304569","1556081573334","1556081733753","1556081875417","1556082365196","1556082592541","1580281989435","1580288478900","1580288876398","1580289264560","1580289346815","1580289428067"],"settings":{"title":"Store Locations"}},"1568865131249":{"type":"homepage-feature-video","disabled":true,"settings":{"title":"Discover The Tennis Remix Collection","desktop_video":"https:\/\/cdn.shopify.com\/s\/files\/1\/0233\/9713\/8496\/files\/200323_LACOSTE_05s_grading_SQUARE_v01_f0a44569-448d-4372-828e-a05969305ca1.mp4?v=1591251089","mobile_video":"https:\/\/cdn.shopify.com\/s\/files\/1\/0233\/9713\/8496\/files\/200323_LACOSTE_05s_VERTICAL_grading_v02_3a7d83f2-2307-425f-909e-46c503cf42d9.mp4?v=1591251124","btn_txt":"Discover","btn_link":"shopify:\/\/collections\/tennis-remix-collection","button_color":"white"}},"1569898786742":{"type":"l-popup-banner","disabled":true,"settings":{"section_link":"http:\/\/laco.st\/aIkDOslz"}},"1574822749096":{"type":"l-courtslam-banner","disabled":true,"settings":{"title":"Court Slam: Make An Impact","btn_txt":"RSVP","btn_link":"http:\/\/bit.ly\/2Oirt0d"}},"l-foc-collection":{"type":"l-foc-collection","blocks":{"1597814697785":{"type":"headers","settings":{"collection":"mens-a-place-in-the-sun-s20","video_image_overlay_desktop":"shopify:\/\/shop_images\/SS20_A_Place_In_The_Sun_PLP_Header.jpg","video_image_overlay_mobile":"shopify:\/\/shop_images\/SS20_A_Place_In_The_Sun_PLP_Header.jpg"}},"1597814097162":{"type":"headers","settings":{"collection":"a-place-in-the-sun-s20","video_image_overlay_desktop":"shopify:\/\/shop_images\/SS20_A_Place_In_The_Sun_PLP_Header.jpg","video_image_overlay_mobile":"shopify:\/\/shop_images\/SS20_A_Place_In_The_Sun_PLP_Header.jpg"}},"1576124633828":{"type":"collection","settings":{"collection":"foc","banner_image_desk":"shopify:\/\/shop_images\/festivalofchic-desktop-1_ec0d86df-996e-490e-b446-678e4ff5c654.jpg","banner_image_mobile":"shopify:\/\/shop_images\/festivalofchic-mobile-1_068c1805-a2c2-4e74-b15e-e6a4aac18005.jpg","banner_insert_count":"9"}},"1591841588470":{"type":"collection","settings":{"collection":"lacoste-motion-s20","banner_image_desk":"shopify:\/\/shop_images\/accident-lacoste-motion-mixe-2-desktop_f9828d6a-94a1-49f6-8227-2abc63d80581.jpg","banner_image_mobile":"shopify:\/\/shop_images\/accident-lacoste-motion-mixe-2-mobile_53468322-571f-429f-90d7-03e1b189ff04.jpg","banner_insert_count":"9"}},"1591841804663":{"type":"collection","settings":{"collection":"lacoste-motion-s20","banner_image_desk":"shopify:\/\/shop_images\/accident-lacoste-motion-mixe-1-desktop_3e500be7-6c6a-4baa-9609-3b3c3d279aed.jpg","banner_image_mobile":"shopify:\/\/shop_images\/accident-lacoste-motion-mixe-1-mobile_fdcc0e27-ce00-4920-9548-9a3b4e7f66e4.jpg","banner_insert_count":"18"}},"1591842251813":{"type":"collection","settings":{"collection":"mens-lacoste-motion-s20","banner_image_desk":"shopify:\/\/shop_images\/accident-lacoste-motion-men-1-desktop.jpg","banner_image_mobile":"shopify:\/\/shop_images\/accident-lacoste-motion-men-1-mobile.jpg","banner_insert_count":"9"}},"1591842322515":{"type":"collection","settings":{"collection":"womens-lacoste-motion-s20","banner_image_desk":"shopify:\/\/shop_images\/accident-lacoste-motion-women-1-desktop.jpg","banner_image_mobile":"shopify:\/\/shop_images\/accident-lacoste-motion-women-1-mobile.jpg","banner_insert_count":"9"}},"1591842390551":{"type":"collection","settings":{"collection":"womens-lacoste-motion-s20","banner_image_desk":"shopify:\/\/shop_images\/accident-lacoste-motion-women-2-desktop_a4ec6cae-dd2b-4dfc-8c4f-3ada57e96df9.jpg","banner_image_mobile":"shopify:\/\/shop_images\/accident-lacoste-motion-women-2-mobile_3e619203-089c-44fd-aef4-be3d1d0b8c37.jpg","banner_insert_count":"18"}},"1592810227530":{"type":"collection","settings":{"collection":"crocoseries-s20-friends-with-you","banner_image_desk":"shopify:\/\/shop_images\/plp_content_brand_SS20_crocoseries.jpg","banner_image_mobile":"shopify:\/\/shop_images\/plp_content_brand_SS20_crocoseries-mob.jpg","banner_insert_count":"1"}},"1594004681720":{"type":"collection","settings":{"collection":"crocoseries-s20","banner_image_desk":"shopify:\/\/shop_images\/plp_content_brand_SS20_crocoseries_83006828-8bd5-43ae-b6b5-3926e63d4bd5.jpg","banner_image_mobile":"shopify:\/\/shop_images\/plp_content_brand_SS20_crocoseries-mob_92f30150-e055-4c2f-b99f-21b610712569.jpg","banner_insert_count":"5"}},"1591323681156":{"type":"headers","settings":{"collection":"foc","banner_video_desk":"https:\/\/cdn.shopify.com\/s\/files\/1\/0233\/9713\/8496\/files\/media.io_Lacoste_FestivalOfChic_video_desktop.mp4?v=1571978312","banner_video_mob":"https:\/\/cdn.shopify.com\/s\/files\/1\/0233\/9713\/8496\/files\/media.io_Lacoste_FestivalOfChic_video_desktop.mp4?v=1571978312","video_image_overlay_desktop":"shopify:\/\/shop_images\/festivalofchic_desktop_8bac0a24-1737-4406-8f95-0a08be54e8ca.jpg","video_image_overlay_mobile":"shopify:\/\/shop_images\/festivalofchic_desktop_8bac0a24-1737-4406-8f95-0a08be54e8ca.jpg"}},"1591323806552":{"type":"headers","settings":{"collection":"mens-foc","banner_video_desk":"https:\/\/cdn.shopify.com\/s\/files\/1\/0233\/9713\/8496\/files\/media.io_Lacoste_FestivalOfChic_video_desktop.mp4?v=1571978312","banner_video_mob":"https:\/\/cdn.shopify.com\/s\/files\/1\/0233\/9713\/8496\/files\/media.io_Lacoste_FestivalOfChic_video_desktop.mp4?v=1571978312","video_image_overlay_desktop":"shopify:\/\/shop_images\/festivalofchic_desktop_8bac0a24-1737-4406-8f95-0a08be54e8ca.jpg","video_image_overlay_mobile":"shopify:\/\/shop_images\/festivalofchic_desktop_8bac0a24-1737-4406-8f95-0a08be54e8ca.jpg"}},"1591323870407":{"type":"headers","settings":{"collection":"womens-foc","banner_video_desk":"https:\/\/cdn.shopify.com\/s\/files\/1\/0233\/9713\/8496\/files\/media.io_Lacoste_FestivalOfChic_video_desktop.mp4?v=1571978312","banner_video_mob":"https:\/\/cdn.shopify.com\/s\/files\/1\/0233\/9713\/8496\/files\/media.io_Lacoste_FestivalOfChic_video_desktop.mp4?v=1571978312","video_image_overlay_desktop":"shopify:\/\/shop_images\/festivalofchic_desktop_8bac0a24-1737-4406-8f95-0a08be54e8ca.jpg","video_image_overlay_mobile":"shopify:\/\/shop_images\/festivalofchic_desktop_8bac0a24-1737-4406-8f95-0a08be54e8ca.jpg"}},"1591323973979":{"type":"headers","settings":{"collection":"lany-s20","banner_video_desk":"https:\/\/cdn.shopify.com\/s\/files\/1\/0233\/9713\/8496\/files\/200323_LACOSTE_05s_grading_SQUARE_v01.mp4?v=1589523742","banner_video_mob":"https:\/\/cdn.shopify.com\/s\/files\/1\/0233\/9713\/8496\/files\/200323_LACOSTE_05s_VERTICAL_grading_v02.mp4?v=1589523742"}},"1591702274271":{"type":"headers","settings":{"collection":"lg-lacoste-motion-s20","banner_video_desk":"https:\/\/cdn.shopify.com\/s\/files\/1\/0233\/9713\/8496\/files\/lacoste_motion_ss20_mixte_desktop.mp4?v=1579156815","banner_video_mob":"https:\/\/cdn.shopify.com\/s\/files\/1\/0233\/9713\/8496\/files\/lacoste_motion_ss20_mixte_mobile.mp4?v=1579156813"}},"1591841537465":{"type":"headers","settings":{"collection":"lacoste-motion-s20","banner_video_desk":"https:\/\/cdn.shopify.com\/s\/files\/1\/0233\/9713\/8496\/files\/lacoste_motion_ss20_mixte_desktop.mp4?v=1579156815","banner_video_mob":"https:\/\/cdn.shopify.com\/s\/files\/1\/0233\/9713\/8496\/files\/lacoste_motion_ss20_mixte_mobile.mp4?v=1579156813"}},"1591841919571":{"type":"headers","settings":{"collection":"mens-lacoste-motion-s20","banner_video_desk":"https:\/\/cdn.shopify.com\/s\/files\/1\/0233\/9713\/8496\/files\/lacoste_motion_ss20_mixte_desktop.mp4?v=1579156815","banner_video_mob":"https:\/\/cdn.shopify.com\/s\/files\/1\/0233\/9713\/8496\/files\/lacoste_motion_ss20_mixte_mobile.mp4?v=1579156813"}},"1591842630358":{"type":"headers","settings":{"collection":"womens-lacoste-motion-s20","banner_video_desk":"https:\/\/cdn.shopify.com\/s\/files\/1\/0233\/9713\/8496\/files\/lacoste_motion_ss20_mixte_desktop.mp4?v=1579156815","banner_video_mob":"https:\/\/cdn.shopify.com\/s\/files\/1\/0233\/9713\/8496\/files\/lacoste_motion_ss20_mixte_mobile.mp4?v=1579156813"}},"1591842750112":{"type":"headers","settings":{"collection":"shoes-lacoste-motion-s20","banner_video_desk":"https:\/\/cdn.shopify.com\/s\/files\/1\/0233\/9713\/8496\/files\/lacoste_motion_ss20_mixte_desktop.mp4?v=1579156815","banner_video_mob":"https:\/\/cdn.shopify.com\/s\/files\/1\/0233\/9713\/8496\/files\/lacoste_motion_ss20_mixte_mobile.mp4?v=1579156813"}},"1591842874682":{"type":"headers","settings":{"collection":"polos-lacoste-motion-s20","banner_video_desk":"https:\/\/cdn.shopify.com\/s\/files\/1\/0233\/9713\/8496\/files\/lacoste_motion_ss20_mixte_desktop.mp4?v=1579156815","banner_video_mob":"https:\/\/cdn.shopify.com\/s\/files\/1\/0233\/9713\/8496\/files\/lacoste_motion_ss20_mixte_mobile.mp4?v=1579156813"}},"1591842978263":{"type":"headers","settings":{"collection":"sweatshirts-lacoste-motion-s20","banner_video_desk":"https:\/\/cdn.shopify.com\/s\/files\/1\/0233\/9713\/8496\/files\/lacoste_motion_ss20_mixte_desktop.mp4?v=1579156815","banner_video_mob":"https:\/\/cdn.shopify.com\/s\/files\/1\/0233\/9713\/8496\/files\/lacoste_motion_ss20_mixte_mobile.mp4?v=1579156813"}},"1591843284338":{"type":"headers","settings":{"collection":"polos-shop","video_image_overlay_desktop":"shopify:\/\/shop_images\/060320_LANY_All_Polos_PLP_header.jpg","video_image_overlay_mobile":"shopify:\/\/shop_images\/060320_LANY_All_Polos_PLP_header.jpg"}},"1591843369880":{"type":"headers","settings":{"collection":"mens-shoes","video_image_overlay_desktop":"shopify:\/\/shop_images\/FW20_-_Men_s_Shoes_-_LANY_PLP_Header.jpg","video_image_overlay_mobile":"shopify:\/\/shop_images\/FW20_-_Men_s_Shoes_-_LANY_PLP_Header.jpg"}},"1591843486349":{"type":"headers","settings":{"collection":"mens-polos","video_image_overlay_desktop":"shopify:\/\/shop_images\/060320_LANY_Men_s_Polos_PLP_header.jpg","video_image_overlay_mobile":"shopify:\/\/shop_images\/060320_LANY_Men_s_Polos_PLP_header.jpg"}},"1591842023416":{"type":"headers","settings":{"collection":"crocodad-s20","video_image_overlay_desktop":"shopify:\/\/shop_images\/061020-Lacoste-Father_s-Day-Promo-PLP.gif","video_image_overlay_mobile":"shopify:\/\/shop_images\/061020-Lacoste-Father_s-Day-Promo-PLP.gif"}},"1591842070779":{"type":"headers","settings":{"collection":"clothing-crocodad-s20","video_image_overlay_desktop":"shopify:\/\/shop_images\/061020-Lacoste-Father_s-Day-Promo-PLP.gif","video_image_overlay_mobile":"shopify:\/\/shop_images\/061020-Lacoste-Father_s-Day-Promo-PLP.gif"}},"1591842119566":{"type":"headers","settings":{"collection":"accessories-crocodad-s20","video_image_overlay_desktop":"shopify:\/\/shop_images\/061020-Lacoste-Father_s-Day-Promo-PLP.gif","video_image_overlay_mobile":"shopify:\/\/shop_images\/061020-Lacoste-Father_s-Day-Promo-PLP.gif"}},"1591842196989":{"type":"headers","settings":{"collection":"shoes-crocodad-s20","video_image_overlay_desktop":"shopify:\/\/shop_images\/061020-Lacoste-Father_s-Day-Promo-PLP.gif","video_image_overlay_mobile":"shopify:\/\/shop_images\/061020-Lacoste-Father_s-Day-Promo-PLP.gif"}},"1591848990871":{"type":"headers","settings":{"collection":"leather-goods-crocodad-s20","video_image_overlay_desktop":"shopify:\/\/shop_images\/061020-Lacoste-Father_s-Day-Promo-PLP.gif","video_image_overlay_mobile":"shopify:\/\/shop_images\/061020-Lacoste-Father_s-Day-Promo-PLP.gif"}},"1592203414425":{"type":"headers","settings":{"collection":"clothing-lacoste-motion-s20","banner_video_desk":"https:\/\/cdn.shopify.com\/s\/files\/1\/0233\/9713\/8496\/files\/lacoste_motion_ss20_mixte_desktop.mp4?v=1579156815","banner_video_mob":"https:\/\/cdn.shopify.com\/s\/"}},"1592449625735":{"type":"headers","settings":{"collection":"crocoseries-s20-friends-with-you","video_image_overlay_desktop":"shopify:\/\/shop_images\/plp-header-desktop_friends.jpg","video_image_overlay_mobile":"shopify:\/\/shop_images\/lacoste-crocoseries-story-1-component-mob-friends-with-you.jpg"}},"1592450065034":{"type":"headers","settings":{"collection":"crocoseries-s20-jeremyville","video_image_overlay_desktop":"shopify:\/\/shop_images\/plp-header-desktop_jeremyville.jpg","video_image_overlay_mobile":"shopify:\/\/shop_images\/lacoste-crocoseries-story-3-component-mob-jeremyville.jpg"}},"1592449953166":{"type":"headers","settings":{"collection":"crocoseries-s20-jean-michel-tixier","video_image_overlay_desktop":"shopify:\/\/shop_images\/plp-header-desktop_tixier.jpg","video_image_overlay_mobile":"shopify:\/\/shop_images\/lacoste-crocoseries-story-2-component-mob-jean-michel-tixi.jpg"}},"1594004505617":{"type":"headers","settings":{"collection":"crocoseries-s20","video_image_overlay_desktop":"shopify:\/\/shop_images\/plp-header-desktop_crocoseries.jpg","video_image_overlay_mobile":"shopify:\/\/shop_images\/plp-header-mobile_crocoseries.jpg"}},"1594200199909":{"type":"headers","settings":{"collection":"crocoseries-s20-mens-friends-with-you","video_image_overlay_desktop":"shopify:\/\/shop_images\/plp-header-desktop_friends_52fc3782-e497-41f9-8647-247e3c0296b5.jpg","video_image_overlay_mobile":"shopify:\/\/shop_images\/plp-header-mobile_friends_277174fd-53fd-4a0c-a67b-23cc7200cfbd.jpg"}},"1594200298461":{"type":"headers","settings":{"collection":"crocoseries-s20-womens-friends-with-you","video_image_overlay_desktop":"shopify:\/\/shop_images\/plp-header-desktop_friends_52fc3782-e497-41f9-8647-247e3c0296b5.jpg","video_image_overlay_mobile":"shopify:\/\/shop_images\/plp-header-mobile_friends_277174fd-53fd-4a0c-a67b-23cc7200cfbd.jpg"}},"1594200399143":{"type":"headers","settings":{"collection":"crocoseries-s20-kids-friends-with-you","video_image_overlay_desktop":"shopify:\/\/shop_images\/plp-header-desktop_friends_52fc3782-e497-41f9-8647-247e3c0296b5.jpg","video_image_overlay_mobile":"shopify:\/\/shop_images\/plp-header-mobile_friends_277174fd-53fd-4a0c-a67b-23cc7200cfbd.jpg"}},"1594200470868":{"type":"headers","settings":{"collection":"crocoseries-s20-mens-jean-michel-tixier","video_image_overlay_desktop":"shopify:\/\/shop_images\/plp-header-desktop_tixier_a2505da2-9e6f-4179-9ca1-a620f871caa4.jpg","video_image_overlay_mobile":"shopify:\/\/shop_images\/plp-header-mobile_tixier_a2117947-cfbc-4be3-9ef7-ab046ddf316b.jpg"}},"1594200529757":{"type":"headers","settings":{"collection":"crocoseries-s20-womens-jean-michel-tixier","video_image_overlay_desktop":"shopify:\/\/shop_images\/plp-header-desktop_tixier_a2505da2-9e6f-4179-9ca1-a620f871caa4.jpg","video_image_overlay_mobile":"shopify:\/\/shop_images\/plp-header-mobile_tixier_a2117947-cfbc-4be3-9ef7-ab046ddf316b.jpg"}},"1594200567041":{"type":"headers","settings":{"collection":"crocoseries-s20-kids-jean-michel-tixier","video_image_overlay_desktop":"shopify:\/\/shop_images\/plp-header-desktop_tixier_a2505da2-9e6f-4179-9ca1-a620f871caa4.jpg","video_image_overlay_mobile":"shopify:\/\/shop_images\/plp-header-mobile_tixier_a2117947-cfbc-4be3-9ef7-ab046ddf316b.jpg"}},"1594200740962":{"type":"headers","settings":{"collection":"crocoseries-s20-mens-jeremyville","video_image_overlay_desktop":"shopify:\/\/shop_images\/plp-header-desktop_jeremyville_880852f5-b728-4095-8cd1-af2a4933f58d.jpg","video_image_overlay_mobile":"shopify:\/\/shop_images\/plp-header-mobile_jeremyville_d7100cd9-c146-4879-88a4-916f62b4f8a7.jpg"}},"1594200791643":{"type":"headers","settings":{"collection":"crocoseries-s20-womens-jeremyville","video_image_overlay_desktop":"shopify:\/\/shop_images\/plp-header-desktop_jeremyville_880852f5-b728-4095-8cd1-af2a4933f58d.jpg","video_image_overlay_mobile":"shopify:\/\/shop_images\/plp-header-mobile_jeremyville_d7100cd9-c146-4879-88a4-916f62b4f8a7.jpg"}},"1594200834577":{"type":"headers","settings":{"collection":"crocoseries-s20-kids-jeremyville","video_image_overlay_desktop":"shopify:\/\/shop_images\/plp-header-desktop_jeremyville_880852f5-b728-4095-8cd1-af2a4933f58d.jpg","video_image_overlay_mobile":"shopify:\/\/shop_images\/plp-header-mobile_jeremyville_d7100cd9-c146-4879-88a4-916f62b4f8a7.jpg"}},"1576124736414":{"type":"links","settings":{"collection":"foc","nav_url":"shopify:\/\/collections\/men-foc","nav_txt":"Men"}},"1576124761340":{"type":"links","settings":{"collection":"foc","nav_url":"shopify:\/\/collections\/womens-foc","nav_txt":"Women"}},"1597814820627":{"type":"headers","settings":{"collection":"womens-a-place-in-the-sun-s20","video_image_overlay_desktop":"shopify:\/\/shop_images\/SS20_A_Place_In_The_Sun_PLP_Header.jpg","video_image_overlay_mobile":"shopify:\/\/shop_images\/SS20_A_Place_In_The_Sun_PLP_Header.jpg"}},"1600646627104":{"type":"collection","settings":{"collection":"a-place-in-the-sun-s20","banner_image_desk":"shopify:\/\/shop_images\/plp_content_brand__SS20_placeinthesun_women1-desktop_d4099719-95ed-4c69-bda5-86a69e96bd89.jpg","banner_image_mobile":"shopify:\/\/shop_images\/plp_content_brand__SS20_placeinthesun_women1-mobile.jpg","banner_insert_count":"5"}},"1600646662045":{"type":"collection","settings":{"collection":"a-place-in-the-sun-s20","banner_image_desk":"shopify:\/\/shop_images\/plp_content_brand__SS20_placeinthesun_men2-desktop.jpg","banner_image_mobile":"shopify:\/\/shop_images\/plp_content_brand__SS20_placeinthesun_men2-mobile.jpg","banner_insert_count":"14"}},"1602713701105":{"type":"headers","settings":{"collection":"storm-96-lo-f20","banner_video_desk":"https:\/\/cdn.shopify.com\/s\/files\/1\/0233\/9713\/8496\/files\/Cover-Storm96Lo-desktop_f8859411-5788-4e00-aafa-8d41c743d031.mp4?v=1602567352","banner_video_mob":"https:\/\/cdn.shopify.com\/s\/files\/1\/0233\/9713\/8496\/files\/Cover-Storm96Lo-mobile_4c7650fb-dfa5-4566-a80b-356272016877.mp4?v=1602567374"}},"1602713669082":{"type":"collection","settings":{"collection":"storm-96-lo-f20","banner_image_desk":"shopify:\/\/shop_images\/Storm96lo-plp-push-deskto.jpg","banner_image_mobile":"shopify:\/\/shop_images\/Storm96lo-plp-push-mobile.jpg","banner_insert_count":"5"}},"1602713741379":{"type":"headers","settings":{"collection":"mens-storm-96-lo-f20","banner_video_desk":"https:\/\/cdn.shopify.com\/s\/files\/1\/0233\/9713\/8496\/files\/Cover-Storm96Lo-desktop_f8859411-5788-4e00-aafa-8d41c743d031.mp4?v=1602567352","banner_video_mob":"https:\/\/cdn.shopify.com\/s\/files\/1\/0233\/9713\/8496\/files\/Cover-Storm96Lo-mobile_4c7650fb-dfa5-4566-a80b-356272016877.mp4?v=1602567374"}},"1602713778547":{"type":"collection","settings":{"collection":"mens-storm-96-lo-f20","banner_image_desk":"shopify:\/\/shop_images\/Storm96lo-plp-push-deskto.jpg","banner_image_mobile":"shopify:\/\/shop_images\/Storm96lo-plp-push-mobile.jpg","banner_insert_count":"5"}},"1602713803087":{"type":"headers","settings":{"collection":"womens-storm-96-lo-f20","banner_video_desk":"https:\/\/cdn.shopify.com\/s\/files\/1\/0233\/9713\/8496\/files\/Cover-Storm96Lo-desktop_f8859411-5788-4e00-aafa-8d41c743d031.mp4?v=1602567352","banner_video_mob":"https:\/\/cdn.shopify.com\/s\/files\/1\/0233\/9713\/8496\/files\/Cover-Storm96Lo-mobile_4c7650fb-dfa5-4566-a80b-356272016877.mp4?v=1602567374"}},"1602713834793":{"type":"collection","settings":{"collection":"womens-storm-96-lo-f20","banner_image_desk":"shopify:\/\/shop_images\/Storm96lo-plp-push-deskto.jpg","banner_image_mobile":"shopify:\/\/shop_images\/Storm96lo-plp-push-mobile.jpg","banner_insert_count":"5"}},"1602713869658":{"type":"headers","settings":{"collection":"chinatown-market-f20","banner_video_desk":"https:\/\/cdn.shopify.com\/s\/files\/1\/0233\/9713\/8496\/files\/Chinatown-Market-StratWindow-Desk_5s_-2_5mo.mp4?v=1600732238","banner_video_mob":"https:\/\/cdn.shopify.com\/s\/files\/1\/0233\/9713\/8496\/files\/Chinatown-Market-StratWindow-Mobile_5s_-2_5mo.mp4?v=1600732235"}},"1602713948055":{"type":"collection","settings":{"collection":"chinatown-market-f20","banner_image_desk":"shopify:\/\/shop_images\/Desk_be72ff65-8a86-4395-95e9-17a5061c0084.jpg","banner_image_mobile":"shopify:\/\/shop_images\/Mobile_2fdcb82d-34ba-460e-87a3-6275fb5cae0c.jpg","banner_insert_count":"5"}},"1602923821242":{"type":"collection","settings":{"collection":"iconic-women-s20","banner_image_desk":"shopify:\/\/shop_images\/SS20_Iconic_Women_PLP_Push_Desktop_071720.jpg","banner_image_mobile":"shopify:\/\/shop_images\/IMG_7727.jpg","banner_insert_count":"5"}},"1602923877326":{"type":"headers","settings":{"collection":"iconic-women-s20","video_image_overlay_desktop":"shopify:\/\/shop_images\/SS20_Iconic_Women_PLP_Header_071720.jpg","video_image_overlay_mobile":"shopify:\/\/shop_images\/SS20_Iconic_Women_PLP_Header_071720.jpg"}},"6e3cfdb9-f0e2-45c2-9c47-8b58a3b180f8":{"type":"collection","settings":{"collection":"new-horizons-f20","banner_image_desk":"shopify:\/\/shop_images\/PLP-845-x-471-1.jpg","banner_image_mobile":"shopify:\/\/shop_images\/PLP-845-x-471-1.jpg","banner_insert_count":"5"}},"f2952914-573e-419f-8ec3-cb25d30dd877":{"type":"headers","settings":{"collection":"new-horizons-f20","video_image_overlay_desktop":"shopify:\/\/shop_images\/PLP-HEADER-922-x-742_769d1915-402f-492f-a3c7-0ac18f0eba88.jpg","video_image_overlay_mobile":"shopify:\/\/shop_images\/750-x-500-mobile_075b45a0-4818-4fe9-896a-86f1a14a0683.jpg"}},"aa8e6099-6dd6-41e0-b215-53bba71e862f":{"type":"collection","settings":{"collection":"womens-new-horizons-f20","banner_image_desk":"shopify:\/\/shop_images\/PLP-845-x-471-1.jpg","banner_image_mobile":"shopify:\/\/shop_images\/PLP-845-x-471-1.jpg","banner_insert_count":"5"}},"0f83b485-169f-4b1b-bcd9-dec4bb2abc89":{"type":"headers","settings":{"collection":"womens-new-horizons-f20","video_image_overlay_desktop":"shopify:\/\/shop_images\/PLP-HEADER-922-x-742_769d1915-402f-492f-a3c7-0ac18f0eba88.jpg","video_image_overlay_mobile":"shopify:\/\/shop_images\/750-x-500-mobile_075b45a0-4818-4fe9-896a-86f1a14a0683.jpg"}},"b8c82eeb-9fb5-4a21-8178-26a11b5f0d92":{"type":"collection","settings":{"collection":"mens-new-horizons-f20","banner_image_desk":"shopify:\/\/shop_images\/PLP-845-x-471-1.jpg","banner_image_mobile":"shopify:\/\/shop_images\/PLP-845-x-471-1.jpg","banner_insert_count":"5"}},"8b2d4351-0a10-4c51-9bb3-938d6cfd369c":{"type":"headers","settings":{"collection":"mens-new-horizons-f20","video_image_overlay_desktop":"shopify:\/\/shop_images\/PLP-HEADER-922-x-742_769d1915-402f-492f-a3c7-0ac18f0eba88.jpg","video_image_overlay_mobile":"shopify:\/\/shop_images\/750-x-500-mobile_075b45a0-4818-4fe9-896a-86f1a14a0683.jpg"}},"b721d2b9-6f03-4746-8743-5a2e49220639":{"type":"headers","settings":{"collection":"national-geographic-f20","banner_video_desk":"https:\/\/cdn.shopify.com\/s\/files\/1\/0233\/9713\/8496\/files\/BRANDBLOCK_DESK_VIDEO.mp4?v=1607470363","banner_video_mob":"https:\/\/cdn.shopify.com\/s\/files\/1\/0233\/9713\/8496\/files\/BRANDBLOCK_MOB_VIDEO.mp4?v=1607470383"}},"d168b71b-53b4-4514-b6f3-e9f4ef7b70ef":{"type":"collection","settings":{"collection":"national-geographic-f20","banner_image_desk":"shopify:\/\/shop_images\/BRANDBLOCK_DESK_VIDEO008.jpg","banner_image_mobile":"shopify:\/\/shop_images\/BRANDBLOCK_MOB_VIDEO008.jpg","banner_insert_count":"5"}},"521cfcc9-237c-4dd2-a51a-217e8af8fa0e":{"type":"headers","settings":{"collection":"womens-national-geographic-f20","banner_video_desk":"https:\/\/cdn.shopify.com\/s\/files\/1\/0233\/9713\/8496\/files\/BRANDBLOCK_DESK_VIDEO.mp4?v=1607470363","banner_video_mob":"https:\/\/cdn.shopify.com\/s\/files\/1\/0233\/9713\/8496\/files\/BRANDBLOCK_MOB_VIDEO.mp4?v=1607470383"}},"b3bd3423-95c4-4d4b-857f-6af57c90a318":{"type":"collection","settings":{"collection":"womens-national-geographic-f20","banner_image_desk":"shopify:\/\/shop_images\/BRANDBLOCK_DESK_VIDEO008.jpg","banner_image_mobile":"shopify:\/\/shop_images\/BRANDBLOCK_MOB_VIDEO008.jpg","banner_insert_count":"5"}},"7109cf80-8a11-41a0-bcd8-a23818743f1a":{"type":"headers","settings":{"collection":"mens-national-geographic-f20","banner_video_desk":"https:\/\/cdn.shopify.com\/s\/files\/1\/0233\/9713\/8496\/files\/BRANDBLOCK_DESK_VIDEO.mp4?v=1607470363","banner_video_mob":"https:\/\/cdn.shopify.com\/s\/files\/1\/0233\/9713\/8496\/files\/BRANDBLOCK_MOB_VIDEO.mp4?v=1607470383"}},"1169a76d-48d0-4ddd-acc1-fbd16dc958cb":{"type":"collection","settings":{"collection":"mens-national-geographic-f20","banner_image_desk":"shopify:\/\/shop_images\/BRANDBLOCK_DESK_VIDEO008.jpg","banner_image_mobile":"shopify:\/\/shop_images\/BRANDBLOCK_MOB_VIDEO008.jpg","banner_insert_count":"5"}}},"block_order":["1597814697785","1597814097162","1576124633828","1591841588470","1591841804663","1591842251813","1591842322515","1591842390551","1592810227530","1594004681720","1591323681156","1591323806552","1591323870407","1591323973979","1591702274271","1591841537465","1591841919571","1591842630358","1591842750112","1591842874682","1591842978263","1591843284338","1591843369880","1591843486349","1591842023416","1591842070779","1591842119566","1591842196989","1591848990871","1592203414425","1592449625735","1592450065034","1592449953166","1594004505617","1594200199909","1594200298461","1594200399143","1594200470868","1594200529757","1594200567041","1594200740962","1594200791643","1594200834577","1576124736414","1576124761340","1597814820627","1600646627104","1600646662045","1602713701105","1602713669082","1602713741379","1602713778547","1602713803087","1602713834793","1602713869658","1602713948055","1602923821242","1602923877326","6e3cfdb9-f0e2-45c2-9c47-8b58a3b180f8","f2952914-573e-419f-8ec3-cb25d30dd877","aa8e6099-6dd6-41e0-b215-53bba71e862f","0f83b485-169f-4b1b-bcd9-dec4bb2abc89","b8c82eeb-9fb5-4a21-8178-26a11b5f0d92","8b2d4351-0a10-4c51-9bb3-938d6cfd369c","b721d2b9-6f03-4746-8743-5a2e49220639","d168b71b-53b4-4514-b6f3-e9f4ef7b70ef","521cfcc9-237c-4dd2-a51a-217e8af8fa0e","b3bd3423-95c4-4d4b-857f-6af57c90a318","7109cf80-8a11-41a0-bcd8-a23818743f1a","1169a76d-48d0-4ddd-acc1-fbd16dc958cb"],"settings":{"title":"Festival of Chic"}},"collection-combination":{"type":"collection-combination","settings":{}},"sport-lacoste_player-collection":{"type":"sport-lacoste_player-collection","settings":{"title":"Lacoste player collection","collection":"tennis"}},"l-christmas-grid":{"type":"l-christmas-grid","blocks":{"1576494038723":{"type":"gift","settings":{"product":"mens-long-sleeve-lacoste-paris-polo-shirt-ph2481-f19"}},"1576494069690":{"type":"gift","settings":{"product":"womens-anna-fantaisie-reversible-bicolour-tote-bag-nf2994as-f19"}},"1576494144001":{"type":"gift","settings":{"product":"womens-crew-neck-check-lacoste-badge-cotton-sweater-af8763-f19"}},"1576568832833":{"type":"gift","settings":{"product":"lacoste-l1212-polo-shirt-l1212-f19"}},"1576568872239":{"type":"gift","settings":{"product":"mens-l1212-backpack-nh2944cf-f19"}},"1576568886937":{"type":"gift","settings":{"product":"womens-lacoste-live-velvet-croc-fleece-sweatshirt-sf8221-f19"}},"1576568902792":{"type":"gift","settings":{"product":"mens-socks-in-unicolor-jersey-ra6300-f19"}},"1576568915175":{"type":"gift","settings":{"product":"mens-lacoste-sport-cotton-jersey-polo-shirt-dh8557-f19"}}},"block_order":["1576494038723","1576494069690","1576494144001","1576568832833","1576568872239","1576568886937","1576568902792","1576568915175"],"settings":{"title":"Eight Gift Ideas"}},"l-christmas-col1":{"type":"l-christmas-col1","blocks":{"1576494204596":{"type":"exclusive","settings":{"product":"lacoste-l1212-polo-shirt-l1212-f19","data_group":"Men"}},"1576494286810":{"type":"exclusive","settings":{"product":"mens-classic-petit-pique-flap-bag-nh2341hc-f19","data_group":"Men"}},"1576494301465":{"type":"exclusive","settings":{"product":"mens-carnaby-evo-319-7-sport-leather-sneakers-738sma0031-f19","data_group":"Men"}},"1576494327663":{"type":"group","settings":{"group_txt":"Men","data_group":"Men"}},"1576494501739":{"type":"exclusive","settings":{"product":"womens-buttoned-mid-length-stretch-cotton-skirt-jf8495-f19","data_group":"Women"}},"1576494545755":{"type":"exclusive","settings":{"product":"womens-croco-crew-grained-leather-bucket-bag-nf2971nl-f19","data_group":"Women"}},"1576494570200":{"type":"exclusive","settings":{"product":"womens-carnaby-evo-118-6-sport-leather-sneakers-735spw0013-f19","data_group":"Women"}},"1576494593583":{"type":"group","settings":{"group_txt":"Women","data_group":"Women"}},"1576494602381":{"type":"exclusive","settings":{"product":"boys-colorful-striped-pique-polo-shirt-pj8336-f19","data_group":"Kids"}},"1576494625949":{"type":"exclusive","settings":{"product":"girls-petit-pique-polo-shirt-pj4470","data_group":"Kids"}},"1576494655835":{"type":"exclusive","settings":{"product":"boys-contrast-fleece-hooded-nylon-bomber-bj8043-f19","data_group":"Kids"}},"1576494666027":{"type":"group","settings":{"group_txt":"Kids","data_group":"Kids"}}},"block_order":["1576494204596","1576494286810","1576494301465","1576494327663","1576494501739","1576494545755","1576494570200","1576494593583","1576494602381","1576494625949","1576494655835","1576494666027"],"settings":{"title":"Christmas Exclusive Products"}},"l-christmas-etgg":{"type":"l-christmas-etgg","blocks":{"1576497265178":{"type":"gift","settings":{"product":"mens-gabardine-cap-with-oversized-crocodile-rk8217-f19"}},"1576497318197":{"type":"gift","settings":{"product":"mens-ribbed-cotton-blend-sock-3-pack-ra8277-f19"}},"1576497333567":{"type":"gift","settings":{"product":"womens-reversible-waterproof-bucket-hat-rk9223-f19"}},"1576497354536":{"type":"gift","settings":{"product":"womens-check-croc-badge-cotton-cap-rk9222-f19"}}},"block_order":["1576497265178","1576497318197","1576497333567","1576497354536"],"settings":{"title":"Easy to give gift"}},"l-christmas-ppg":{"type":"l-christmas-ppg","settings":{"title":"Penny-Pincher Gifts","collection":"penny-pinchers-gift"}},"l-txt-banner":{"type":"l-txt-banner","blocks":{"dfd2b0f4-c870-4ab2-a8cc-8588b12845a4":{"type":"text","settings":{"title":"<p>Important Notice:  Please expect delays in order processing and deliveries due to nationwide community quarantine conditions. Thank you for your understanding.<\/p>","color_background":"#115a33","color_font":"#ffffff"}}},"block_order":["dfd2b0f4-c870-4ab2-a8cc-8588b12845a4"],"settings":{"enable":true,"color_background":"#949494","color_font":"#ffffff"}},"1576733640027":{"type":"homepage-main-hero","disabled":true,"settings":{"title":"Test","url_text":"Discover","url_link":"#"}},"1576835765275":{"type":"christmas-home-hero","disabled":true,"settings":{"title":"","btn_text":"Shop now","btn_link":"shopify:\/\/collections\/crocodad-s20","button_color":"white"}},"novak-pr-slider-1":{"type":"novak-pr-slider-1","blocks":{"1582515348073":{"type":"product","settings":{"product":"mens-lacoste-sport-tennis-microfiber-cap-support-with-style-collection-for-novak-djokovic-rk3881"}},"1582515384257":{"type":"product","settings":{"product":"mens-lacoste-sport-x-novak-djokovic-zip-sweat-jacket-bh8838-f19"}},"1582518610206":{"type":"product","settings":{"product":"mens-lacoste-sport-novak-djokovic-printed-jersey-polo-dh3387"}},"1582518625582":{"type":"product","settings":{"product":"mens-lacoste-sport-unicolor-ultra-dry-jersey-polo-dh3392"}}},"block_order":["1582515348073","1582515384257","1582518610206","1582518625582"],"settings":{"title":"The pieces from this collection :"}},"novak-pr-slider-2":{"type":"novak-pr-slider-2","blocks":{"1582519107132":{"type":"product","settings":{"product":"mens-lacoste-sport-novak-djokovic-printed-jersey-polo-dh3387"}},"1582519120588":{"type":"product","settings":{"product":"mens-lacoste-sport-tennis-microfiber-cap-support-with-style-collection-for-novak-djokovic-rk3881"}},"1582519131083":{"type":"product","settings":{"product":"mens-sport-novak-djokovic-collection-stretch-polo-dh3382"}},"1582519142683":{"type":"product","settings":{"product":"mens-lacoste-sport-x-novak-djokovic-stretch-print-jersey-polo-shirt-dh7974-f19"}},"1582519155652":{"type":"product","settings":{"product":"mens-lacoste-sport-x-novak-djokovic-camouflage-croc-logo-t-shirt-th7971-f19"}}},"block_order":["1582519107132","1582519120588","1582519131083","1582519142683","1582519155652"],"settings":{"title":"The pieces from this collection :"}},"polo-header-settings":{"type":"polo-header-settings","settings":{"page_title":"Lacoste Polo Shop","page_subtitle":"Pick Your Iconic","page_title_description":"The perfect place to find the polo that's made for you."}},"polo-layer-story-settings":{"type":"polo-layer-story-settings","blocks":{"1583827232939":{"type":"buttons","settings":{"button_text":"For Him","button_url":"shopify:\/\/collections\/mens-polos"}},"1583827458251":{"type":"buttons","settings":{"button_text":"For Her","button_url":"shopify:\/\/collections\/womens-polos"}}},"block_order":["1583827232939","1583827458251"],"settings":{"layer_story_mob":"shopify:\/\/shop_images\/lacoste-polo-shop-story-1-component-1-mob.jpg","layer_story_desktop":"shopify:\/\/shop_images\/lacoste-polo-shop-story-1-component-1-desktop.jpg","layer_title":"Pick Your Iconic","page_title_description":"Reissued or inspired from the archives, this season the polo is playing the authenticity card. A relaxed cut and unbuttoned open collar for women. A two-tone ribbon and Lacoste badge on the sleeve give a vintage look for men."}},"polo-layer-slide":{"type":"polo-layer-slide","blocks":{"1583818733579":{"type":"slider","settings":{"layer_slide_initial":true,"layer_slide_img":"shopify:\/\/shop_images\/ALTON_MASON_L1212_132_Classic_Fit.jpg","layer_slide_title":"The Classic Fit","layer_slide_description":"Straight cut, wide sleeves, two buttons, iconic green crocodile and the original Petit Piqué stitch. Slip into this polo for style and comfort.","layer_slide_linktext":"Discover","layer_slide_link":"shopify:\/\/collections\/mens-classic-fit"}},"1583823957182":{"type":"slider","settings":{"layer_slide_initial":false,"layer_slide_img":"shopify:\/\/shop_images\/lacoste-polo-shop-slider-tiles-1-component-2-desktop.jpg","layer_slide_title":"The Slim Fit","layer_slide_description":"Fitted cut, tailored sleeves and waist, multiple crocodiles and fabrics. This polo highlights your figure.","layer_slide_linktext":"Discover","layer_slide_link":"shopify:\/\/collections\/mens-slim-fit"}},"1583824065179":{"type":"slider","settings":{"layer_slide_initial":false,"layer_slide_img":"shopify:\/\/shop_images\/lacoste-polo-shop-slider-tiles-1-component-3-desktop.jpg","layer_slide_title":"The Paris Polo","layer_slide_description":"Fitted cut, shirt collar, concealed buttons, tonal crocodile and stretch piqué stitching. This polo embodies subtle French elegance.","layer_slide_linktext":"Discover","layer_slide_link":"shopify:\/\/collections\/mens-paris-fit"}},"1583824233459":{"type":"slider","settings":{"layer_slide_initial":false,"layer_slide_img":"shopify:\/\/shop_images\/lacoste-polo-shop-slider-tiles-1-component-4-desktop.jpg","layer_slide_title":"The Classic Fit","layer_slide_description":"Straight cut, two buttons, short sleeves, and the iconic green crocodile. This Petit Piqué polo enhances all body shapes.","layer_slide_linktext":"Discover","layer_slide_link":"shopify:\/\/collections\/womens-classic-fit"}},"1583824314352":{"type":"slider","settings":{"layer_slide_initial":false,"layer_slide_img":"shopify:\/\/shop_images\/lacoste-polo-shop-slider-tiles-1-component-5-desktop.jpg","layer_slide_title":"The Slim Fit","layer_slide_description":"Fitted waist, elongated buttoning, narrow sleeves and a tonal crocodile. This polo in stretch mini piqué frames the figure with subtlety.","layer_slide_linktext":"Discover","layer_slide_link":"shopify:\/\/collections\/womens-slim-fit"}},"1583824396733":{"type":"slider","settings":{"layer_slide_initial":false,"layer_slide_img":"shopify:\/\/shop_images\/lacoste-polo-shop-slider-tiles-1-component-6-desktop.jpg","layer_slide_title":"The slim fit shirts","layer_slide_description":"Fitted waist, three-quarter sleeves, mother-of-pearl buttons and a tonal crocodile. This polo in stretch mini piqué frames the figure with elegance.","layer_slide_linktext":"Discover","layer_slide_link":"shopify:\/\/collections\/womens-slim-shirt"}}},"block_order":["1583818733579","1583823957182","1583824065179","1583824233459","1583824314352","1583824396733"],"settings":{"layer_title":"Your cut","layer_description":"Discover all of the Lacoste fits and find the one that suits you best."}},"polo-layer-push-tiles-settings":{"type":"polo-layer-push-tiles-settings","blocks":{"1583825186017":{"type":"tiles","settings":{"layer_tile_img":"shopify:\/\/shop_images\/lacoste-polo-shop-push-1-component-1-desktop.jpg","layer_tile_title":"The classic colours","layer_tile_description":"Bright white, elegant black, formal grey...Neutral tones that match with everything.","layer_tile_linktext":"Discover","layer_tile_link":"https:\/\/lacoste.com.ph\/products\/lacoste-l1212-polo-shirt-l1212-s20"}},"1583825325499":{"type":"tiles","settings":{"layer_tile_img":"shopify:\/\/shop_images\/lacoste-polo-shop-push-1-component-2-desktop.jpg","layer_tile_title":"The bright colours","layer_tile_description":"Bold red, iconic green, electric blue...Colours that pop and turn heads.","layer_tile_linktext":"Discover","layer_tile_link":"https:\/\/lacoste.com.ph\/products\/lacoste-l1212-polo-shirt-l1212-s20"}},"1583825371074":{"type":"tiles","settings":{"layer_tile_img":"shopify:\/\/shop_images\/lacoste-polo-shop-push-1-component-3-desktop.jpg","layer_tile_title":"The pastel colours","layer_tile_description":"Flamingo pink, teal blue, olive green...Soft and alluring shades.","layer_tile_linktext":"Discover","layer_tile_link":"https:\/\/lacoste.com.ph\/products\/lacoste-l1212-polo-shirt-l1212-s20"}}},"block_order":["1583825186017","1583825325499","1583825371074"],"settings":{"layer_title":"Your colour","layer_description":"Over 100 inimitable colours developed by Lacoste. Discover the polo in every hue."}},"polo-layer-slider-tiles-settings":{"type":"polo-layer-slider-tiles-settings","blocks":{"1583820685849":{"type":"tileslider","settings":{"layer_slide_initial":true,"layer_slide_img":"shopify:\/\/shop_images\/lacoste-polo-shop-slider-tiles-2-component-1.jpg","layer_slide_linktext":"Get this polo","layer_slide_link":"https:\/\/lacoste.com.ph\/products\/mens-lacoste-paris-polo-shirt-regular-fit-stretch-cotton-pique-ph5522-s20"}},"1583825423119":{"type":"tileslider","settings":{"layer_slide_initial":false,"layer_slide_img":"shopify:\/\/shop_images\/lacoste-polo-shop-slider-tiles-2-component-2.jpg","layer_slide_linktext":"Get this polo","layer_slide_link":"https:\/\/lacoste.com.ph\/products\/womens-lacoste-slim-fit-stretch-mini-cotton-pique-polo-shirt-pf7845-f19"}},"1583825444464":{"type":"tileslider","settings":{"layer_slide_initial":false,"layer_slide_img":"shopify:\/\/shop_images\/lacoste-polo-shop-slider-tiles-2-component-3.jpg","layer_slide_linktext":"Get this polo","layer_slide_link":"https:\/\/lacoste.com.ph\/products\/lacoste-l1212-polo-shirt-l1212-s20"}},"1583825456594":{"type":"tileslider","settings":{"layer_slide_initial":false,"layer_slide_img":"shopify:\/\/shop_images\/lacoste-polo-shop-slider-tiles-2-component-4.jpg","layer_slide_linktext":"Get this polo","layer_slide_link":"https:\/\/lacoste.com.ph\/products\/lacoste-l1212-polo-shirt-l1212-s20"}},"1583825476110":{"type":"tileslider","settings":{"layer_slide_initial":false,"layer_slide_img":"shopify:\/\/shop_images\/lacoste-polo-shop-slider-tiles-2-component-5.jpg","layer_slide_linktext":"Get this polo","layer_slide_link":"https:\/\/lacoste.com.ph\/products\/lacoste-l1212-polo-shirt-l1212-s20"}},"1583825496618":{"type":"tileslider","settings":{"layer_slide_initial":false,"layer_slide_img":"shopify:\/\/shop_images\/lacoste-polo-shop-slider-tiles-2-component-6.jpg","layer_slide_linktext":"Get this polo","layer_slide_link":"https:\/\/lacoste.com.ph\/products\/lacoste-l1212-polo-shirt-l1212-s20"}}},"block_order":["1583820685849","1583825423119","1583825444464","1583825456594","1583825476110","1583825496618"],"settings":{"layer_title":"#MyLacostePolo","layer_subtitle":"Cool polo looks","layer_button_text":"Stay inspired!"}},"polo-layer-push-tiles2-settings":{"type":"polo-layer-push-tiles2-settings","blocks":{"1583825956151":{"type":"tiles","settings":{"layer_tile_img":"shopify:\/\/shop_images\/lacoste-polo-shop-push-2-component-1.jpg","layer_tile_title":"The cotton petit piqué","layer_tile_description":"A signature fabric by Lacoste made with multiple threads for a textured feel that ensures comfort, flexibility and style."}},"1583825974498":{"type":"tiles","settings":{"layer_tile_img":"shopify:\/\/shop_images\/lacoste-polo-shop-push-2-component-2.jpg","layer_tile_title":"The details","layer_tile_description":"Two-button placket, mother-of-pearl buttons, ribbed collar, gathered cuffs and side slits...It's all in the signature tailored finishes."}},"1583825987080":{"type":"tiles","settings":{"layer_tile_img":"shopify:\/\/shop_images\/lacoste-polo-shop-push-2-component-3.jpg","layer_tile_title":"The crocodile","layer_tile_description":"herever it lands, 1200 embroidery stitches are required to make the crocodile appear."}}},"block_order":["1583825956151","1583825974498","1583825987080"],"settings":{"layer_title":"The polo, a unique savoir-faire","layer_description":"Signature fabric, tailored details and the iconic crocodile.","layer_button_text":"Open your eyes","layer_button_url":""}},"polo-slider-block-settings":{"type":"polo-slider-block-settings","blocks":{"1583826065987":{"type":"tiles","settings":{"layer_block_desk":"shopify:\/\/shop_images\/lacoste-polo-shop-blocks-component-blocks-1-desktop.jpg","layer_block_mob":"shopify:\/\/shop_images\/lacoste-polo-shop-blocks-component-blocks-1-mobile.jpg","layer_block_title":"#MyLacostePolo","layer_block_linktext":"Get inspired","layer_block_link":"shopify:\/\/pages\/mylacostepolo"}},"1583826134688":{"type":"tiles","settings":{"layer_block_desk":"shopify:\/\/shop_images\/lacoste-polo-shop-blocks-component-blocks-2-desktop.jpg","layer_block_mob":"shopify:\/\/shop_images\/lacoste-polo-shop-blocks-component-blocks-2-mobile.jpg","layer_block_title":"Savoire-faire","layer_block_linktext":"Open your eyes","layer_block_link":"shopify:\/\/pages\/savoir-faire"}}},"block_order":["1583826065987","1583826134688"],"settings":{"layer_title":"In the footsteps of the crocodile","layer_description":"Everything you didn't know about Lacoste"}},"crocoseries-jstixier":{"type":"crocoseries-jstixier","blocks":{"1594355400216":{"type":"products","settings":{"product":"unisex-lacoste-x-jean-michel-tixier-aop-regular-fit-pique-polo-ph0408-s20"}},"1594355417100":{"type":"products","settings":{"product":"unisex-lacoste-x-jean-michel-tixier-croc-print-crew-neck-t-shirt-th0413-s20"}},"1596616555094":{"type":"products","settings":{"product":"mens-lacoste-x-jean-michel-tixier-fun-printed-leather-zippered-wallet-nh3209ak-s20"}},"1596616571025":{"type":"products","settings":{"product":"mens-lacoste-x-jean-michel-tixier-printed-cotton-tote-nh3208ak-s20"}},"1594355440426":{"type":"products","settings":{"product":"unisex-lacoste-x-jean-michel-tixier-croc-print-classic-fit-pique-polo-ph0410-s20"}},"1590978798029":{"type":"products","settings":{"product":"unisex-lacoste-x-jean-michel-tixier-aop-sweatshirt-sh0406-s20"}},"1594199972799":{"type":"products","settings":{"product":"boys-lacoste-x-jean-michel-tixier-croc-print-polo-shirt-pj0128-s20"}}},"block_order":["1594355400216","1594355417100","1596616555094","1596616571025","1594355440426","1590978798029","1594199972799"],"settings":{}},"1591341732818":{"type":"homepage-feature-video","disabled":true,"settings":{"title":"LANY - #CrocodileInside","desktop_video":"https:\/\/cdn.shopify.com\/s\/files\/1\/0233\/9713\/8496\/files\/200323_LACOSTE_05s_grading_SQUARE_v01_f0a44569-448d-4372-828e-a05969305ca1.mp4?v=1591251089","mobile_video":"https:\/\/cdn.shopify.com\/s\/files\/1\/0233\/9713\/8496\/files\/200323_LACOSTE_05s_VERTICAL_grading_v02_3a7d83f2-2307-425f-909e-46c503cf42d9.mp4?v=1591251124","btn_txt":"Discover","btn_link":"http:\/\/laco.st\/bxJihZOS","button_color":"white"}},"l-product-template":{"type":"l-product-template","blocks":{"1591677644491":{"type":"product","settings":{"product":"mens-storm-96-textile-and-leather-sneakers-739sma0068-s20","bb_label":"ELEGANTLY BOLD","bb_title":"Storm 96","bb_desc":"Born in 1996, the Storm 96 is back to the streets in its original version. With its 90’s inspiration line, the new retro-running is dedicated to the bold and creative youth. Strong silhouette and vibrant colors, it’s the perfect sneaker for those who push the boundaries of creation but want to remain elegant. Learn from the past, create your own future.","bb_btnurl":"","bb_btntxt":"","bb_img1":"","bb_img2":"shopify:\/\/shop_images\/INSTAGRAM-GAUCHE-_4_5_674a5381-a294-4619-89ce-9cae09d224e5.jpg","bb_img3":"shopify:\/\/shop_images\/INSTAGRAM_-_DROITE-_4_5_b7543d4e-bec9-4f03-bc9d-7391ed7e9ad6.jpg","bb_video":"https:\/\/cdn.shopify.com\/s\/files\/1\/0233\/9713\/8496\/files\/Lacoste_Storm_96_16_9_a6b9c10d-867d-4f7d-8642-7edc3afe114a.m4v?v=1591665184","bb_vidbg":"shopify:\/\/shop_images\/INSTAGRAM_-_DROITE-_4_5_b7543d4e-bec9-4f03-bc9d-7391ed7e9ad6.jpg"}},"1591677919039":{"type":"product","settings":{"product":"womens-storm-96-textile-and-leather-sneakers-739sfa0043-s20","bb_label":"ELEGANTLY BOLD","bb_title":"Storm 96","bb_desc":"Born in 1996, the Storm 96 is back to the streets in its original version. With its 90’s inspiration line, the new retro-running is dedicated to the bold and creative youth. Strong silhouette and vibrant colors, it’s the perfect sneaker for those who push the boundaries of creation but want to remain elegant. Learn from the past, create your own future.","bb_btnurl":"","bb_btntxt":"","bb_img1":"","bb_img2":"shopify:\/\/shop_images\/pdp-storm-women-2_1.jpg","bb_img3":"shopify:\/\/shop_images\/INSTAGRAM_-_DROITE-_4_5_b7543d4e-bec9-4f03-bc9d-7391ed7e9ad6.jpg","bb_video":"https:\/\/cdn.shopify.com\/s\/files\/1\/0233\/9713\/8496\/files\/Lacoste_Storm_96_16_9_a6b9c10d-867d-4f7d-8642-7edc3afe114a.m4v?v=1591665184","bb_vidbg":"shopify:\/\/shop_images\/INSTAGRAM_-_DROITE-_4_5_b7543d4e-bec9-4f03-bc9d-7391ed7e9ad6.jpg"}},"1591678072521":{"type":"product","settings":{"product":"mens-storm-96-textile-and-leather-sneakers-739sma0053-s20","bb_label":"ELEGANTLY BOLD","bb_title":"Storm 96","bb_desc":"Born in 1996, the Storm 96 is back to the streets in its original version. With its 90’s inspiration line, the new retro-running is dedicated to the bold and creative youth. Strong silhouette and vibrant colors, it’s the perfect sneaker for those who push the boundaries of creation but want to remain elegant. Learn from the past, create your own future.","bb_btnurl":"","bb_btntxt":"","bb_img1":"","bb_img2":"shopify:\/\/shop_images\/INSTAGRAM-GAUCHE-_4_5_674a5381-a294-4619-89ce-9cae09d224e5.jpg","bb_img3":"shopify:\/\/shop_images\/INSTAGRAM_-_DROITE-_4_5_b7543d4e-bec9-4f03-bc9d-7391ed7e9ad6.jpg","bb_video":"https:\/\/cdn.shopify.com\/s\/files\/1\/0233\/9713\/8496\/files\/Lacoste_Storm_96_16_9_a6b9c10d-867d-4f7d-8642-7edc3afe114a.m4v?v=1591665184","bb_vidbg":"shopify:\/\/shop_images\/INSTAGRAM_-_DROITE-_4_5_b7543d4e-bec9-4f03-bc9d-7391ed7e9ad6.jpg"}},"1591678202235":{"type":"product","settings":{"product":"womens-storm-96-textile-and-leather-sneaker-739sfa0055-s20","bb_label":"ELEGANTLY BOLD","bb_title":"Storm 96","bb_desc":"Born in 1996, the Storm 96 is back to the streets in its original version. With its 90’s inspiration line, the new retro-running is dedicated to the bold and creative youth. Strong silhouette and vibrant colors, it’s the perfect sneaker for those who push the boundaries of creation but want to remain elegant. Learn from the past, create your own future.","bb_btnurl":"","bb_btntxt":"","bb_img1":"","bb_img2":"shopify:\/\/shop_images\/pdp-storm-women-2_1.jpg","bb_img3":"shopify:\/\/shop_images\/INSTAGRAM_-_DROITE-_4_5_b7543d4e-bec9-4f03-bc9d-7391ed7e9ad6.jpg","bb_video":"https:\/\/cdn.shopify.com\/s\/files\/1\/0233\/9713\/8496\/files\/Lacoste_Storm_96_16_9_a6b9c10d-867d-4f7d-8642-7edc3afe114a.m4v?v=1591665184","bb_vidbg":"shopify:\/\/shop_images\/INSTAGRAM_-_DROITE-_4_5_b7543d4e-bec9-4f03-bc9d-7391ed7e9ad6.jpg"}}},"block_order":["1591677644491","1591677919039","1591678072521","1591678202235"],"settings":{"color":"#c8bfbc"}},"collection-private-sale":{"type":"collection-private-sale","settings":{"guest_title":"Sorry, this is a restricted page!","guest_message":"<p>Please log-in to access this page<\/p>","guest_message_font_size":16,"guest_bg_img":"shopify:\/\/shop_images\/Desktop_1600x900_UPDATED_98e53b5a-98ee-4eb5-aa2c-dfa91453dbe9.jpg"}},"page-inside-story-2":{"type":"page-inside-story-2","settings":{"title":"L.12.12 Polo Merci, solidarity with a heart","image":"shopify:\/\/shop_images\/story-page-push-desktop.jpg","mobile_image":"shopify:\/\/shop_images\/story-page-push-mobile.jpg","text":"To support the International Federation of Red Cross and Red Crescent Societies, all sales (excl. taxes) of the polo will enable the implementation of health protection programs for volunteers in 23 countries where there is currently no medical coverage.","button_label":""}},"crocoseries-friendswithyou":{"type":"crocoseries-friendswithyou","blocks":{"1594355037906":{"type":"products","settings":{"product":"unisex-lacoste-x-friendswithyou-aop-design-crew-neck-t-shirt-th0403-s20"}},"1594200032647":{"type":"products","settings":{"product":"unisex-lacoste-x-friendswithyou-aop-design-sweatshirt-sh0421-s20"}},"1596616395653":{"type":"products","settings":{"product":"mens-lacoste-x-friendswithyou-colored-metal-charm-keyring-nh3207aj-s20"}},"1596616413673":{"type":"products","settings":{"product":"mens-lacoste-x-friendswithyou-fun-printed-leather-wallet-nh3206aj-s20"}},"1594355603328":{"type":"products","settings":{"product":"unisex-lacoste-x-friendswithyou-classic-fit-pique-polo-ph0407-s20"}},"1594355611988":{"type":"products","settings":{"product":"unisex-lacoste-x-friendswithyou-oversized-print-sweatshirt-sh0411-s20"}},"1596616440585":{"type":"products","settings":{"product":"boys-lacoste-x-friendswithyou-aop-print-polo-shirt-pj0125-s20"}}},"block_order":["1594355037906","1594200032647","1596616395653","1596616413673","1594355603328","1594355611988","1596616440585"],"settings":{}},"crocoseries-jeremyville":{"type":"crocoseries-jeremyville","blocks":{"1596618196373":{"type":"products","settings":{"product":"unisex-lacoste-x-jeremyville-classic-fit-pique-polo-ph0409-s20"}},"1596618213842":{"type":"products","settings":{"product":"unisex-lacoste-x-jeremyville-print-cotton-shirt-ch0203-s20"}},"1596618231486":{"type":"products","settings":{"product":"mens-lacoste-x-jeremyville-printed-backpack-nh3205ne-s20"}},"1596618241397":{"type":"products","settings":{"product":"mens-gripshot-lacoste-x-jeremyville-canvas-sneakers-739cma0130-ss20"}},"1596618529963":{"type":"products","settings":{"product":"boys-lacoste-x-jeremyville-graphic-print-crew-neck-t-shirt-tj0127-s20"}}},"block_order":["1596618196373","1596618213842","1596618231486","1596618241397","1596618529963"],"settings":{}},"1594259690102":{"type":"homepage-banner","disabled":true,"settings":{"title":"A polo for a big THANK YOU","text":"Solidarity With A Heart","flex_wrap":true,"button_label":"Discover","link":"http:\/\/laco.st\/bgArdNdX"}},"1596764514069":{"type":"home-marketing-block","disabled":true,"settings":{"title":"#CrocoSeries: 3 artists, 3 visions, 3 styles","subtext":"The crocodile is reinvented with the inspired strokes of FriendsWithYou, Jeremyville, and Jean-Michel Tixier.","button_text":"Discover","button_url":"http:\/\/laco.st\/ebsZCrZy","mob_color":"#E4D17B","desk_color":"#E4D17B"}},"1597766757483":{"type":"christmas-home-hero","disabled":true,"settings":{"title":"<p style=\"color:#FFFFFF\">A Place In<br><br>The Sun<\/p>","btn_text":"Discover","btn_link":"http:\/\/laco.st\/azKhUPlU","button_color":"white"}},"1600131701909":{"type":"christmas-home-hero","disabled":true,"settings":{"title":"","btn_text":"Discover","btn_link":"http:\/\/laco.st\/bdbTZRKd","button_color":"white"}},"1601448482324":{"type":"christmas-home-hero","disabled":true,"settings":{"title":"","btn_text":"Discover","btn_link":"http:\/\/laco.st\/ANHcPFiv","button_color":"black"}},"1601448598796":{"type":"home-full-video-banner","disabled":true,"settings":{"title":"Lacoste x Chinatown Market Collection","heading_color":"white","desktop_video":"https:\/\/cdn.shopify.com\/s\/files\/1\/0233\/9713\/8496\/files\/Chinatown-Market-StratWindow-Desk_5s_-2_5mo.mp4?v=1600732238","mobile_video":"https:\/\/cdn.shopify.com\/s\/files\/1\/0233\/9713\/8496\/files\/Chinatown-Market-StratWindow-Mobile_5s_-2_5mo.mp4?v=1600732235","btn_text":"Discover","btn_link":"http:\/\/laco.st\/TIKZSgma","button_color":"transparent"}},"1602713437937":{"type":"home-full-video-banner","settings":{"title":"Storm 96 Lo: You Set The Pace","heading_color":"white","desktop_video":"https:\/\/cdn.shopify.com\/s\/files\/1\/0233\/9713\/8496\/files\/Cover-Storm96Lo-desktop.mp4?v=1601251076","mobile_video":"https:\/\/cdn.shopify.com\/s\/files\/1\/0233\/9713\/8496\/files\/Cover-Storm96Lo-mobile.mp4?v=1601251116","btn_text":"Discover","btn_link":"http:\/\/laco.st\/YVVehpbk","button_color":"white"}},"iconic-women-header":{"type":"iconic-women-header","settings":{"page_title":"Iconic Women Collection","page_title_description":"Uniting elegance and movement, Lacoste aims to give confidence to modern women in their everyday lives.","button_label":"Discover","button_link":"shopify:\/\/collections\/iconic-women-s20"}},"iconic-women-description":{"type":"iconic-women-description","settings":{"desktop_video":"https:\/\/cdn.shopify.com\/s\/files\/1\/0233\/9713\/8496\/files\/LACOSTE_v3_-_60s_Square.mp4?v=1600733894","mobile_video":"https:\/\/cdn.shopify.com\/s\/files\/1\/0233\/9713\/8496\/files\/LACOSTE_v3_-_60s_Vertical.mp4?v=1600733893","mobile_poster":"shopify:\/\/shop_images\/Mobile-Poster.png","title":"Iconic Woman <br>  Katrina Razon","description":"Empowered leader and inspiring entrepreneur Katrina Razon creates meaningful impact as an investor, producer, and DJ.\n<br>\n<br>\nOne of her many projects is the Wonderfruit Festival, a music festival celebrating diversity in a way that is carbon neutral and beneficial for the environment.\n<br>\n<br>\nKatrina's effortless elegance and steadfast spirit are an inspiration to Filipinas everywhere."}},"iconic-women-product-carousel":{"type":"iconic-women-product-carousel","blocks":{"1602923525491":{"type":"products","settings":{"product":"womens-solid-hooded-drawstring-pique-polo-pf8046-s20"}},"1602923562282":{"type":"products","settings":{"product":"womens-storm-96-textile-and-leather-sneaker-739sfa0055-s20"}},"1602923601476":{"type":"products","settings":{"product":"womens-colorblock-knit-sweater-af5472-s20"}},"1602923619841":{"type":"products","settings":{"product":"womens-colorblock-knit-skirt-jf5609-s20"}}},"block_order":["1602923525491","1602923562282","1602923601476","1602923619841"],"settings":{}},"1604971852f9b55fb5":{"type":"christmas-home-hero","settings":{"title":"New Horizons Collection","btn_text":"Discover","btn_link":"http:\/\/laco.st\/fLuYogQX","button_color":"black"}},"16062013929f182372":{"type":"christmas-home-hero","settings":{"title":"","btn_text":"Shop now","btn_link":"http:\/\/laco.st\/wrygPXMk","button_color":"white"}},"footer":{"type":"footer","blocks":{"1b485495-462e-4b68-b980-8e44d8999fb4":{"type":"icon","settings":{}},"c9a4feac-0cdc-4502-90f8-a8af4d94bed4":{"type":"icon","settings":{}},"2a13f3d5-a93a-4dfe-ab7d-92b7c8b753dd":{"type":"icon","settings":{}},"e2bda6c1-3825-4122-970d-43c98227fd96":{"type":"icon","settings":{}},"0097488d-d39c-4d02-8c5a-290b08608269":{"type":"icon","settings":{}},"babd83a1-26cc-4692-a7b9-7fd43401a360":{"type":"icon","settings":{}},"c4ceaae8-27ef-479d-96ad-49ac632ada47":{"type":"icon","settings":{}},"68424001-22fa-4ab7-84db-78da6a417515":{"type":"icon","settings":{}},"2fa1277b-2e75-4e0c-a06f-a4dc7a8dc2a1":{"type":"icon","settings":{}}},"block_order":["1b485495-462e-4b68-b980-8e44d8999fb4","c9a4feac-0cdc-4502-90f8-a8af4d94bed4","2a13f3d5-a93a-4dfe-ab7d-92b7c8b753dd","e2bda6c1-3825-4122-970d-43c98227fd96","0097488d-d39c-4d02-8c5a-290b08608269","babd83a1-26cc-4692-a7b9-7fd43401a360","c4ceaae8-27ef-479d-96ad-49ac632ada47","68424001-22fa-4ab7-84db-78da6a417515","2fa1277b-2e75-4e0c-a06f-a4dc7a8dc2a1"],"settings":{"button":"Signup","button_link":"shopify:\/\/pages\/signup","tc_label":"<p>By clicking on &#x27;Sign Up&#x27;, you agree to the terms of the <a href=\"https:\/\/lacoste-ph.myshopify.com\/pages\/privacy-policy\" title=\"https:\/\/lacoste-ph.myshopify.com\/pages\/privacy-policy\">Privacy Policy<\/a>.<\/p>"}},"page-nat-geo-banner":{"type":"page-nat-geo-banner","settings":{"heading":"Lacoste X National Geographic","desktop_video":"https:\/\/cdn.shopify.com\/s\/files\/1\/0233\/9713\/8496\/files\/header-desktop-natgeo.mp4?v=1606775927","mobile_video":"https:\/\/cdn.shopify.com\/s\/files\/1\/0233\/9713\/8496\/files\/header-mobile-natgeo.mp4?v=1606775927","title":"","text":"<p>The exclusive Lacoste and National Geographic collaboration celebrates the beauty of the natural world with prints inspired by the striking colors and patterns of four incredible species.<\/p>","button_label":"The collection","button_link":"https:\/\/lacoste.com.ph\/collections\/national-geographic-f20"}},"page-nat-geo-promotion-image-1":{"type":"page-nat-geo-promotion-image-1","settings":{"title":"Jaguar elegance","subtitle":"NATURAL ALLURE","text":"<p>With its alluring contrast of dark spots on bright beige, the jaguar&#x27;s iconic coat sets it apart from all other felines. Seen on a polo or eye-catching accessories, this delicate-yet-powerful print ensures your style gets noticed. Distinguish yourself naturally in the urban jungle with Lacoste&#x27;s signature silhouettes.<\/p>","button_label":"Discover","button_link":"https:\/\/lacoste.com.ph\/collections\/national-geographic-f20","desktop_image":"shopify:\/\/shop_images\/jaguar-desktop.jpg","mobile_image":"shopify:\/\/shop_images\/jaguar-mobile.jpg"}},"page-promotion-product-list-1":{"type":"page-promotion-product-list-1","blocks":{"109b402e-87f1-48e4-b9ec-0892e7e65b55":{"type":"products","settings":{"product":"mens-lacoste-x-national-geographic-animal-print-polo-shirt-ph6285-f20"}},"160026b0-3091-4ddd-84aa-56da24e8d714":{"type":"products","settings":{"product":"mens-lacoste-x-national-geographic-printed-necklace-wallet-nh3346xm-f20"}},"7fba575e-adf4-43a9-ae98-177eff94e242":{"type":"products","settings":{"product":"mens-lacoste-x-national-geographic-printed-backpack-nh3344xm-f20"}},"8dcbe649-deb1-4a22-ac26-8abbf4d5f4f9":{"type":"products","settings":{"product":"womens-lacoste-x-national-geographic-printed-shopping-bag-nf3345xm-f20"}}},"block_order":["109b402e-87f1-48e4-b9ec-0892e7e65b55","160026b0-3091-4ddd-84aa-56da24e8d714","7fba575e-adf4-43a9-ae98-177eff94e242","8dcbe649-deb1-4a22-ac26-8abbf4d5f4f9"],"settings":{"title":"The crocodile and the jaguar","text":"<p>Elegance and endurance for a standout style.<\/p>"}},"page-nat-geo-promotion-video-2":{"type":"page-nat-geo-promotion-video-2","settings":{"title":"Grévy's zebra individuality","subtitle":"BETWEEN THE LINES","text":"<p>With its graphic coat that exists nowhere else in nature, the Grévy&#x27;s zebra is recognised immediately— just like the Lacoste crocodile. Even as they blend into a herd of hundreds, these slender zebras stand out in the savannah. Seen on a Lacoste backpack or embellishing the Gagnant sneaker, this print highlights your personality with a subtle touch.<\/p>","button_label":"Discover","button_link":"https:\/\/lacoste.com.ph\/collections\/national-geographic-f20","desktop_video":"https:\/\/cdn.shopify.com\/s\/files\/1\/0233\/9713\/8496\/files\/zebre-desktop-natgeo.mp4?v=1606775923","mobile_video":"https:\/\/cdn.shopify.com\/s\/files\/1\/0233\/9713\/8496\/files\/zebre-mobile-natgeo-2.mp4?v=1606775915"}},"page-promotion-product-list-2":{"type":"page-promotion-product-list-2","blocks":{"712a6b8e-9a9a-45b7-a255-45eb1ef4f9c4":{"type":"products","settings":{"product":"mens-lacoste-x-national-geographic-animal-print-polo-shirt-ph6285-f20"}},"f79a87fc-4340-452a-8ab8-5afd9c11ad3a":{"type":"products","settings":{"product":"mens-lacoste-x-national-geographic-printed-necklace-wallet-nh3346xm-f20"}},"b05e659d-3ab0-4d67-bead-ed2c2288113d":{"type":"products","settings":{"product":"womens-lacoste-x-national-geographic-printed-shopping-bag-nf3345xm-f20"}}},"block_order":["712a6b8e-9a9a-45b7-a255-45eb1ef4f9c4","f79a87fc-4340-452a-8ab8-5afd9c11ad3a","b05e659d-3ab0-4d67-bead-ed2c2288113d"],"settings":{"title":"The crocodile and the zebra","text":"<p>Leave a trace in black and white<\/p>"}},"page-nat-geo-promotion-image-3":{"type":"page-nat-geo-promotion-image-3","settings":{"title":"Poison dart frog agility","subtitle":"THE ART OF CAMOUFLAGE","text":"<p>Shifting from an electric blue with black spots to repel predators, to a subdued colour to blend into its environment, the poison dart frog knows how to adapt to any situation. Agile of body and mind, just like Lacoste, it inspires reversible pieces like this double-sided coat that shifts to match your style in no time.<\/p>","button_label":"Discover","button_link":"https:\/\/lacoste.com.ph\/collections\/national-geographic-f20","desktop_image":"shopify:\/\/shop_images\/grenouille-desktop.jpg","mobile_image":"shopify:\/\/shop_images\/grenouille-mobile.jpg"}},"page-promotion-product-list-3":{"type":"page-promotion-product-list-3","blocks":{"600b811b-2dcf-4c7c-a0c5-f79dcba548ce":{"type":"products","settings":{"product":"mens-lacoste-x-national-geographic-animal-print-polo-shirt-ph6285-f20"}},"305b640d-4650-49d2-9249-fba8bad6713f":{"type":"products","settings":{"product":"men-s-lacoste-x-national-geographic-reversible-hooded-quilted-jacket-bh6448-f20"}},"380eb7be-745f-4977-90b9-2efe0777d6d8":{"type":"products","settings":{"product":"mens-lacoste-x-national-geographic-printed-backpack-nh3344xm-f20"}},"0ec90a72-013a-42b4-9ff4-36a43657568f":{"type":"products","settings":{"product":"womens-lacoste-x-national-geographic-printed-shopping-bag-nf3345xm-f20"}}},"block_order":["600b811b-2dcf-4c7c-a0c5-f79dcba548ce","305b640d-4650-49d2-9249-fba8bad6713f","380eb7be-745f-4977-90b9-2efe0777d6d8","0ec90a72-013a-42b4-9ff4-36a43657568f"],"settings":{"title":"The crocodile and the frog","text":"<p>A quick-change wardrobe. Get ready for the big leap.<\/p>"}},"page-nat-geo-promotion-video-4":{"type":"page-nat-geo-promotion-video-4","settings":{"title":"Dragonfly freedom","subtitle":"IN FLIGHT","text":"<p>With its transparent wings and iridescent glow, the dragonfly moves about with total freedom—a pillar in the Lacoste mission since the first polo was created in 1933. With inherent grace, the dragonfly has a majestic effect that, when seen up close, reveals a detailed motif that has been reproduced on this reversible puffer jacket.<\/p>","button_label":"Discover","button_link":"https:\/\/lacoste.com.ph\/collections\/national-geographic-f20","desktop_video":"https:\/\/cdn.shopify.com\/s\/files\/1\/0233\/9713\/8496\/files\/libellule-desktop-natgeo.mp4?v=1606775923","mobile_video":"https:\/\/cdn.shopify.com\/s\/files\/1\/0233\/9713\/8496\/files\/libellule-mobile-natgeo.mp4?v=1606775924"}},"page-nat-geo-promotional-banner":{"type":"page-nat-geo-promotional-banner","settings":{"title":"Founder: Joel Sartore","subtitle":"The National Geographic Photo Ark","text":"<p>The National Geographic Photo Ark uses the power of photography to inspire people to help save endangered species before it’s too late. Founder and photographer Joel Sartore has taken portraits of over 10,500 species — and counting — in his quest to document the approximately 15,000 species living in the world’s zoos and wildlife sanctuaries.<\/p>","button_label":"Zoom in on Photo Ark","button_link":"https:\/\/www.nationalgeographic.org\/projects\/photo-ark\/","desktop_image":"shopify:\/\/shop_images\/ark-desktop-statique.jpg","mobile_image":"shopify:\/\/shop_images\/ark-mobile-statique.jpg"}},"page-nat-geo-grid-collection":{"type":"page-nat-geo-grid-collection","blocks":{"e4b12d54-4d94-40db-b826-50180acc5269":{"type":"collection","settings":{"title":"The complete Lacoste wardrobe for her","button_label":"Explore","button_link":"https:\/\/lacoste.com.ph\/collections\/womens","desktop_image":"shopify:\/\/shop_images\/femme-desktop.jpg","mobile_image":"shopify:\/\/shop_images\/femme-mobile.jpg"}},"99009109-db84-497f-b1c5-eb3f1f307821":{"type":"collection","settings":{"title":"The complete Lacoste wardrobe for him","button_label":"Explore","button_link":"https:\/\/lacoste.com.ph\/collections\/mens","desktop_image":"shopify:\/\/shop_images\/homme-desktop.jpg","mobile_image":"shopify:\/\/shop_images\/homme-mobile.jpg"}}},"block_order":["e4b12d54-4d94-40db-b826-50180acc5269","99009109-db84-497f-b1c5-eb3f1f307821"],"settings":{}},"16075576541692914a":{"type":"christmas-home-hero","settings":{"title":"","btn_text":"Discover","btn_link":"http:\/\/laco.st\/YyCcvuuC","button_color":"white"}},"1607558776bfd96548":{"type":"christmas-home-hero","disabled":true,"settings":{"title":"","btn_text":"Shop now","btn_link":"http:\/\/laco.st\/PbnsbUXp","button_color":"black"}},"account":{"type":"account","settings":{"sale_title":"Private Sale","sale_link":"shopify:\/\/collections\/private-mss-s21"}},"fw20-lacoste-natgeo":{"type":"fw20-lacoste-natgeo","settings":{"title":"Lacoste x National Geographic: Nature's Grandeur","image":"shopify:\/\/shop_images\/GENDER_story_desk_2008_200257d0-210e-49ff-bf43-329142dadb1d.jpg","mobile_image":"shopify:\/\/shop_images\/GENDER_story_mobil_2008008_f2420034-c731-4d07-a768-a51715fb93c2.jpg","text":"The Jaguar's elegance, the Poison Dart Frog's agility, the Dragonfly's freedom, and the Grévy's Zebra's individuality—Lacoste and National Geographic blend the crocodile vision with four amazing animals in a collection made from recycled and eco-friendly materials.","button_label":"Explore","link":"shopify:\/\/pages\/national-geographic-f20"}},"1612922345529c69bb":{"type":"christmas-home-hero","disabled":true,"settings":{"title":"","btn_text":"Shop now","btn_link":"http:\/\/laco.st\/RtSpCysf","button_color":"black"}},"collection-push":{"type":"collection-push","blocks":{"c87faf9d-b3d8-49f0-865a-b4cefc87058f":{"type":"collection","settings":{"collection":"mens","banner_image_desk":"shopify:\/\/shop_images\/Newsletter_PLP_Push_Desktop_Jan_2021_550a5909-5952-41ac-afd9-79de632edcff.jpg","banner_image_mobile":"shopify:\/\/shop_images\/Newsletter_PLP_Push_Mobile_Jan_2021.jpg","banner_insert_count":"5","banner_link":"http:\/\/laco.st\/CuuLQfwJ"}},"708965f2-ea80-4ae7-b3d9-9a8d21769e21":{"type":"collection","settings":{"collection":"womens","banner_image_desk":"shopify:\/\/shop_images\/Newsletter_PLP_Push_Desktop_Jan_2021_550a5909-5952-41ac-afd9-79de632edcff.jpg","banner_image_mobile":"shopify:\/\/shop_images\/Newsletter_PLP_Push_Mobile_Jan_2021.jpg","banner_insert_count":"5","banner_link":"http:\/\/laco.st\/CuuLQfwJ"}},"1d32e529-39a4-43e7-beb9-99ca33a01414":{"type":"collection","settings":{"collection":"kids","banner_image_desk":"shopify:\/\/shop_images\/Newsletter_PLP_Push_Desktop_Jan_2021_550a5909-5952-41ac-afd9-79de632edcff.jpg","banner_image_mobile":"shopify:\/\/shop_images\/Newsletter_PLP_Push_Mobile_Jan_2021.jpg","banner_insert_count":"5","banner_link":"http:\/\/laco.st\/CuuLQfwJ"}},"66166a64-5675-4b82-befc-5f484f78f7ba":{"type":"collection","settings":{"collection":"mens-clothing","banner_image_desk":"shopify:\/\/shop_images\/Newsletter_PLP_Push_Desktop_Jan_2021_550a5909-5952-41ac-afd9-79de632edcff.jpg","banner_image_mobile":"shopify:\/\/shop_images\/Newsletter_PLP_Push_Mobile_Jan_2021.jpg","banner_insert_count":"5","banner_link":"http:\/\/laco.st\/CuuLQfwJ"}},"2c158671-870f-4565-9ac5-860b4caa7c88":{"type":"collection","settings":{"collection":"mens-shoes","banner_image_desk":"shopify:\/\/shop_images\/Newsletter_PLP_Push_Desktop_Jan_2021_550a5909-5952-41ac-afd9-79de632edcff.jpg","banner_image_mobile":"shopify:\/\/shop_images\/Newsletter_PLP_Push_Mobile_Jan_2021.jpg","banner_insert_count":"5","banner_link":"http:\/\/laco.st\/CuuLQfwJ"}},"a22be105-d715-4ee6-acf1-9bd711bc776d":{"type":"collection","settings":{"collection":"mens-accessories","banner_image_desk":"shopify:\/\/shop_images\/Newsletter_PLP_Push_Desktop_Jan_2021_550a5909-5952-41ac-afd9-79de632edcff.jpg","banner_image_mobile":"shopify:\/\/shop_images\/Newsletter_PLP_Push_Mobile_Jan_2021.jpg","banner_insert_count":"5","banner_link":"http:\/\/laco.st\/CuuLQfwJ"}},"4e64d64a-25a3-4787-ae22-0dbce1ad953e":{"type":"collection","settings":{"collection":"womens-clothing","banner_image_desk":"shopify:\/\/shop_images\/Newsletter_PLP_Push_Desktop_Jan_2021_550a5909-5952-41ac-afd9-79de632edcff.jpg","banner_image_mobile":"shopify:\/\/shop_images\/Newsletter_PLP_Push_Mobile_Jan_2021.jpg","banner_insert_count":"5","banner_link":"http:\/\/laco.st\/CuuLQfwJ"}},"cb6d27b2-98df-4fc0-b1de-da064813ccb3":{"type":"collection","settings":{"collection":"womens-shoes","banner_image_desk":"shopify:\/\/shop_images\/Newsletter_PLP_Push_Desktop_Jan_2021_550a5909-5952-41ac-afd9-79de632edcff.jpg","banner_image_mobile":"shopify:\/\/shop_images\/Newsletter_PLP_Push_Mobile_Jan_2021.jpg","banner_insert_count":"5","banner_link":"http:\/\/laco.st\/CuuLQfwJ"}},"20011041-cf30-4d9d-9677-cb7ceb2c5b52":{"type":"collection","settings":{"collection":"girls","banner_image_desk":"shopify:\/\/shop_images\/Newsletter_PLP_Push_Desktop_Jan_2021_550a5909-5952-41ac-afd9-79de632edcff.jpg","banner_image_mobile":"shopify:\/\/shop_images\/Newsletter_PLP_Push_Mobile_Jan_2021.jpg","banner_insert_count":"5","banner_link":"http:\/\/laco.st\/CuuLQfwJ"}},"b0ca4f4b-bcd0-450c-abb1-1122c9b1ff02":{"type":"collection","settings":{"collection":"all-kids-shoes","banner_image_desk":"shopify:\/\/shop_images\/Newsletter_PLP_Push_Desktop_Jan_2021_550a5909-5952-41ac-afd9-79de632edcff.jpg","banner_image_mobile":"shopify:\/\/shop_images\/Newsletter_PLP_Push_Mobile_Jan_2021.jpg","banner_insert_count":"5","banner_link":"http:\/\/laco.st\/CuuLQfwJ"}},"e1c3b330-4384-4be8-8a3a-6f3849cd43d3":{"type":"collection","settings":{"collection":"kids-boys","banner_image_desk":"shopify:\/\/shop_images\/Newsletter_PLP_Push_Desktop_Jan_2021_550a5909-5952-41ac-afd9-79de632edcff.jpg","banner_image_mobile":"shopify:\/\/shop_images\/Newsletter_PLP_Push_Mobile_Jan_2021.jpg","banner_insert_count":"5","banner_link":"http:\/\/laco.st\/CuuLQfwJ"}},"a40d8bae-b986-4538-bf7d-da7cf770f4b3":{"type":"collection","settings":{"collection":"womens-accessories","banner_image_desk":"shopify:\/\/shop_images\/Newsletter_PLP_Push_Desktop_Jan_2021_550a5909-5952-41ac-afd9-79de632edcff.jpg","banner_image_mobile":"shopify:\/\/shop_images\/Newsletter_PLP_Push_Mobile_Jan_2021.jpg","banner_insert_count":"5","banner_link":"http:\/\/laco.st\/CuuLQfwJ"}},"d7bc2b28-a099-4d49-b85f-49c3af528717":{"type":"collection","settings":{"collection":"kids-accessories","banner_image_desk":"shopify:\/\/shop_images\/Newsletter_PLP_Push_Desktop_Jan_2021_550a5909-5952-41ac-afd9-79de632edcff.jpg","banner_image_mobile":"shopify:\/\/shop_images\/Newsletter_PLP_Push_Mobile_Jan_2021.jpg","banner_insert_count":"5","banner_link":"http:\/\/laco.st\/CuuLQfwJ"}},"a8904a98-3b82-42d8-b4db-f4df2ab825bc":{"type":"collection","settings":{"collection":"mens-polos","banner_image_desk":"shopify:\/\/shop_images\/Newsletter_PLP_Push_Desktop_Jan_2021_550a5909-5952-41ac-afd9-79de632edcff.jpg","banner_image_mobile":"shopify:\/\/shop_images\/Newsletter_PLP_Push_Mobile_Jan_2021.jpg","banner_insert_count":"5","banner_link":"http:\/\/laco.st\/CuuLQfwJ"}},"d84984aa-66c3-4bc5-b493-bee59e4b456f":{"type":"collection","settings":{"collection":"mens-jackets-and-coats","banner_image_desk":"shopify:\/\/shop_images\/Newsletter_PLP_Push_Desktop_Jan_2021_9b0d0077-b5cb-462b-93f1-482e6dcff0ab.jpg","banner_image_mobile":"shopify:\/\/shop_images\/Newsletter_PLP_Push_Mobile_Jan_2021_2ccf135a-2643-41ff-a450-b604a6255f38.jpg","banner_insert_count":"5","banner_link":"http:\/\/laco.st\/CuuLQfwJ"}},"7a3179b1-74dd-4a7b-8d60-62b9681b1239":{"type":"collection","settings":{"collection":"mens-knitwear","banner_image_desk":"shopify:\/\/shop_images\/Newsletter_PLP_Push_Desktop_Jan_2021_9b0d0077-b5cb-462b-93f1-482e6dcff0ab.jpg","banner_image_mobile":"shopify:\/\/shop_images\/Newsletter_PLP_Push_Mobile_Jan_2021_2ccf135a-2643-41ff-a450-b604a6255f38.jpg","banner_insert_count":"5","banner_link":"http:\/\/laco.st\/CuuLQfwJ"}},"00cd23df-8778-47c7-a127-667cce5b733f":{"type":"collection","settings":{"collection":"mens-sweatshirts","banner_image_desk":"shopify:\/\/shop_images\/Newsletter_PLP_Push_Desktop_Jan_2021_9b0d0077-b5cb-462b-93f1-482e6dcff0ab.jpg","banner_image_mobile":"shopify:\/\/shop_images\/Newsletter_PLP_Push_Mobile_Jan_2021_2ccf135a-2643-41ff-a450-b604a6255f38.jpg","banner_insert_count":"5","banner_link":"http:\/\/laco.st\/CuuLQfwJ"}},"ec8bb5df-df1a-4568-9dc2-759271a64ff4":{"type":"collection","settings":{"collection":"mens-t-shirts","banner_image_desk":"shopify:\/\/shop_images\/Newsletter_PLP_Push_Desktop_Jan_2021_9b0d0077-b5cb-462b-93f1-482e6dcff0ab.jpg","banner_image_mobile":"shopify:\/\/shop_images\/Newsletter_PLP_Push_Mobile_Jan_2021_2ccf135a-2643-41ff-a450-b604a6255f38.jpg","banner_insert_count":"5","banner_link":"http:\/\/laco.st\/CuuLQfwJ"}},"83ea31c2-5b42-413f-bfa9-3d7fca163cf7":{"type":"collection","settings":{"collection":"mens-shirts","banner_image_desk":"shopify:\/\/shop_images\/Newsletter_PLP_Push_Desktop_Jan_2021_9b0d0077-b5cb-462b-93f1-482e6dcff0ab.jpg","banner_image_mobile":"shopify:\/\/shop_images\/Newsletter_PLP_Push_Mobile_Jan_2021_2ccf135a-2643-41ff-a450-b604a6255f38.jpg","banner_insert_count":"5","banner_link":"http:\/\/laco.st\/CuuLQfwJ"}},"76b38c22-a633-4262-bd90-73f04debcf68":{"type":"collection","settings":{"collection":"mens-trousers-and-shorts","banner_image_desk":"shopify:\/\/shop_images\/Newsletter_PLP_Push_Desktop_Jan_2021_9b0d0077-b5cb-462b-93f1-482e6dcff0ab.jpg","banner_image_mobile":"shopify:\/\/shop_images\/Newsletter_PLP_Push_Mobile_Jan_2021_2ccf135a-2643-41ff-a450-b604a6255f38.jpg","banner_insert_count":"5","banner_link":"http:\/\/laco.st\/CuuLQfwJ"}},"24ad4227-5089-4cfb-a2ac-8a8db736dbcb":{"type":"collection","settings":{"collection":"mens-underwear","banner_image_desk":"shopify:\/\/shop_images\/Newsletter_PLP_Push_Desktop_Jan_2021_9b0d0077-b5cb-462b-93f1-482e6dcff0ab.jpg","banner_image_mobile":"shopify:\/\/shop_images\/Newsletter_PLP_Push_Mobile_Jan_2021_2ccf135a-2643-41ff-a450-b604a6255f38.jpg","banner_insert_count":"5","banner_link":"http:\/\/laco.st\/CuuLQfwJ"}},"4186f4ed-24f3-435d-a196-5c3a15696054":{"type":"collection","settings":{"collection":"mens-sports-clothing","banner_image_desk":"shopify:\/\/shop_images\/Newsletter_PLP_Push_Desktop_Jan_2021_9b0d0077-b5cb-462b-93f1-482e6dcff0ab.jpg","banner_image_mobile":"shopify:\/\/shop_images\/Newsletter_PLP_Push_Mobile_Jan_2021_2ccf135a-2643-41ff-a450-b604a6255f38.jpg","banner_insert_count":"5","banner_link":"http:\/\/laco.st\/CuuLQfwJ"}},"293353a8-6cc1-41a2-8989-712a840a065f":{"type":"collection","settings":{"collection":"mens-lacoste-live","banner_image_desk":"shopify:\/\/shop_images\/Newsletter_PLP_Push_Desktop_Jan_2021_9b0d0077-b5cb-462b-93f1-482e6dcff0ab.jpg","banner_image_mobile":"shopify:\/\/shop_images\/Newsletter_PLP_Push_Mobile_Jan_2021_2ccf135a-2643-41ff-a450-b604a6255f38.jpg","banner_insert_count":"5","banner_link":"http:\/\/laco.st\/CuuLQfwJ"}},"27b455e2-5ac4-4a22-bf63-bca20c57e5c0":{"type":"collection","settings":{"collection":"mens-swimwear","banner_image_desk":"shopify:\/\/shop_images\/Newsletter_PLP_Push_Desktop_Jan_2021_9b0d0077-b5cb-462b-93f1-482e6dcff0ab.jpg","banner_image_mobile":"shopify:\/\/shop_images\/Newsletter_PLP_Push_Mobile_Jan_2021_2ccf135a-2643-41ff-a450-b604a6255f38.jpg","banner_insert_count":"5","banner_link":"http:\/\/laco.st\/CuuLQfwJ"}},"e60d1290-0299-4827-8bcc-d678b8c0b8dc":{"type":"collection","settings":{"collection":"womens-polos","banner_image_desk":"shopify:\/\/shop_images\/Newsletter_PLP_Push_Desktop_Jan_2021_9b0d0077-b5cb-462b-93f1-482e6dcff0ab.jpg","banner_image_mobile":"shopify:\/\/shop_images\/Newsletter_PLP_Push_Mobile_Jan_2021_2ccf135a-2643-41ff-a450-b604a6255f38.jpg","banner_insert_count":"5","banner_link":"http:\/\/laco.st\/CuuLQfwJ"}},"46f3bf6f-fdbd-4241-a43a-89146bc8a2b0":{"type":"collection","settings":{"collection":"womens-jackets-and-coats","banner_image_desk":"shopify:\/\/shop_images\/Newsletter_PLP_Push_Desktop_Jan_2021_9b0d0077-b5cb-462b-93f1-482e6dcff0ab.jpg","banner_image_mobile":"shopify:\/\/shop_images\/Newsletter_PLP_Push_Mobile_Jan_2021_2ccf135a-2643-41ff-a450-b604a6255f38.jpg","banner_insert_count":"5","banner_link":"http:\/\/laco.st\/CuuLQfwJ"}},"03dd5298-ced4-40e5-b3ab-9e375a9f1577":{"type":"collection","settings":{"collection":"womens-knitwear-and-sweatshirts","banner_image_desk":"shopify:\/\/shop_images\/Newsletter_PLP_Push_Desktop_Jan_2021_9b0d0077-b5cb-462b-93f1-482e6dcff0ab.jpg","banner_image_mobile":"shopify:\/\/shop_images\/Newsletter_PLP_Push_Mobile_Jan_2021_2ccf135a-2643-41ff-a450-b604a6255f38.jpg","banner_insert_count":"5","banner_link":"http:\/\/laco.st\/CuuLQfwJ"}},"6b3de321-1934-4cd8-8545-f14a9804d1e7":{"type":"collection","settings":{"collection":"womens-dresses-and-skirts","banner_image_desk":"shopify:\/\/shop_images\/Newsletter_PLP_Push_Desktop_Jan_2021_9b0d0077-b5cb-462b-93f1-482e6dcff0ab.jpg","banner_image_mobile":"shopify:\/\/shop_images\/Newsletter_PLP_Push_Mobile_Jan_2021_2ccf135a-2643-41ff-a450-b604a6255f38.jpg","banner_insert_count":"5","banner_link":"http:\/\/laco.st\/CuuLQfwJ"}},"9269fa6f-e34d-4869-9fe2-8e6d9965e136":{"type":"collection","settings":{"collection":"womens-trousers-and-shorts","banner_image_desk":"shopify:\/\/shop_images\/Newsletter_PLP_Push_Desktop_Jan_2021_9b0d0077-b5cb-462b-93f1-482e6dcff0ab.jpg","banner_image_mobile":"shopify:\/\/shop_images\/Newsletter_PLP_Push_Mobile_Jan_2021_2ccf135a-2643-41ff-a450-b604a6255f38.jpg","banner_insert_count":"5","banner_link":"http:\/\/laco.st\/CuuLQfwJ"}},"de607a59-17f8-47d8-a6ee-ca56f6cebbfd":{"type":"collection","settings":{"collection":"womens-shirts-and-tops","banner_image_desk":"shopify:\/\/shop_images\/Newsletter_PLP_Push_Desktop_Jan_2021_9b0d0077-b5cb-462b-93f1-482e6dcff0ab.jpg","banner_image_mobile":"shopify:\/\/shop_images\/Newsletter_PLP_Push_Mobile_Jan_2021_2ccf135a-2643-41ff-a450-b604a6255f38.jpg","banner_insert_count":"5","banner_link":"http:\/\/laco.st\/CuuLQfwJ"}},"ef9d9d89-0c90-4a05-b841-ebbea5db523f":{"type":"collection","settings":{"collection":"womens-t-shirts","banner_image_desk":"shopify:\/\/shop_images\/Newsletter_PLP_Push_Desktop_Jan_2021_9b0d0077-b5cb-462b-93f1-482e6dcff0ab.jpg","banner_image_mobile":"shopify:\/\/shop_images\/Newsletter_PLP_Push_Mobile_Jan_2021_2ccf135a-2643-41ff-a450-b604a6255f38.jpg","banner_insert_count":"5","banner_link":"http:\/\/laco.st\/CuuLQfwJ"}},"016616cb-1b75-4bec-a113-3391578053b2":{"type":"collection","settings":{"collection":"womens-sport-clothing","banner_image_desk":"shopify:\/\/shop_images\/Newsletter_PLP_Push_Desktop_Jan_2021_9b0d0077-b5cb-462b-93f1-482e6dcff0ab.jpg","banner_image_mobile":"shopify:\/\/shop_images\/Newsletter_PLP_Push_Mobile_Jan_2021_2ccf135a-2643-41ff-a450-b604a6255f38.jpg","banner_insert_count":"5","banner_link":"http:\/\/laco.st\/CuuLQfwJ"}},"0ffe3568-5bbf-47ef-bcc7-a7c81eb59227":{"type":"collection","settings":{"collection":"womens-lacoste-live","banner_image_desk":"shopify:\/\/shop_images\/Newsletter_PLP_Push_Desktop_Jan_2021_9b0d0077-b5cb-462b-93f1-482e6dcff0ab.jpg","banner_image_mobile":"shopify:\/\/shop_images\/Newsletter_PLP_Push_Mobile_Jan_2021_2ccf135a-2643-41ff-a450-b604a6255f38.jpg","banner_insert_count":"5","banner_link":"http:\/\/laco.st\/CuuLQfwJ"}},"c7ac4c45-baa9-4432-abfa-4e19b2bc263e":{"type":"collection","settings":{"collection":"swimwear-for-women","banner_image_desk":"shopify:\/\/shop_images\/Newsletter_PLP_Push_Desktop_Jan_2021_9b0d0077-b5cb-462b-93f1-482e6dcff0ab.jpg","banner_image_mobile":"shopify:\/\/shop_images\/Newsletter_PLP_Push_Mobile_Jan_2021_2ccf135a-2643-41ff-a450-b604a6255f38.jpg","banner_insert_count":"5","banner_link":"http:\/\/laco.st\/CuuLQfwJ"}},"3deae8a5-d193-4c92-a097-4ccfd19d63dc":{"type":"collection","settings":{"collection":"kids-boys-polos","banner_image_desk":"shopify:\/\/shop_images\/Newsletter_PLP_Push_Desktop_Jan_2021_9b0d0077-b5cb-462b-93f1-482e6dcff0ab.jpg","banner_image_mobile":"shopify:\/\/shop_images\/Newsletter_PLP_Push_Mobile_Jan_2021_2ccf135a-2643-41ff-a450-b604a6255f38.jpg","banner_insert_count":"5","banner_link":"http:\/\/laco.st\/CuuLQfwJ"}},"8a37aff2-9b6b-4770-b337-1d29ca9a2862":{"type":"collection","settings":{"collection":"kids-boys-knitwear-and-sweatshirts","banner_image_desk":"shopify:\/\/shop_images\/Newsletter_PLP_Push_Desktop_Jan_2021_9b0d0077-b5cb-462b-93f1-482e6dcff0ab.jpg","banner_image_mobile":"shopify:\/\/shop_images\/Newsletter_PLP_Push_Mobile_Jan_2021_2ccf135a-2643-41ff-a450-b604a6255f38.jpg","banner_insert_count":"5","banner_link":"http:\/\/laco.st\/CuuLQfwJ"}},"03ce4b83-26e0-423a-8488-d584b315f95f":{"type":"collection","settings":{"collection":"kids-boys-jackets-and-coats","banner_image_desk":"shopify:\/\/shop_images\/Newsletter_PLP_Push_Desktop_Jan_2021_9b0d0077-b5cb-462b-93f1-482e6dcff0ab.jpg","banner_image_mobile":"shopify:\/\/shop_images\/Newsletter_PLP_Push_Mobile_Jan_2021_2ccf135a-2643-41ff-a450-b604a6255f38.jpg","banner_insert_count":"5","banner_link":"http:\/\/laco.st\/CuuLQfwJ"}},"6dbba757-d489-495a-b419-3be3904fb609":{"type":"collection","settings":{"collection":"kids-boys-t-shirts-and-shirts","banner_image_desk":"shopify:\/\/shop_images\/Newsletter_PLP_Push_Desktop_Jan_2021_9b0d0077-b5cb-462b-93f1-482e6dcff0ab.jpg","banner_image_mobile":"shopify:\/\/shop_images\/Newsletter_PLP_Push_Mobile_Jan_2021_2ccf135a-2643-41ff-a450-b604a6255f38.jpg","banner_insert_count":"5","banner_link":"http:\/\/laco.st\/CuuLQfwJ"}},"5b323918-f63e-4202-aacb-df19c1150d5a":{"type":"collection","settings":{"collection":"kids-girls-polos","banner_image_desk":"shopify:\/\/shop_images\/Newsletter_PLP_Push_Desktop_Jan_2021_9b0d0077-b5cb-462b-93f1-482e6dcff0ab.jpg","banner_image_mobile":"shopify:\/\/shop_images\/Newsletter_PLP_Push_Mobile_Jan_2021_2ccf135a-2643-41ff-a450-b604a6255f38.jpg","banner_insert_count":"5","banner_link":"http:\/\/laco.st\/CuuLQfwJ"}},"8fb44a10-c842-4f1f-b05f-b379ddf096c3":{"type":"collection","settings":{"collection":"kids-girls-tops","banner_image_desk":"shopify:\/\/shop_images\/Newsletter_PLP_Push_Desktop_Jan_2021_9b0d0077-b5cb-462b-93f1-482e6dcff0ab.jpg","banner_image_mobile":"shopify:\/\/shop_images\/Newsletter_PLP_Push_Mobile_Jan_2021_2ccf135a-2643-41ff-a450-b604a6255f38.jpg","banner_insert_count":"5","banner_link":"http:\/\/laco.st\/CuuLQfwJ"}},"bb0b79a5-6c92-405a-994c-321c4981ea2f":{"type":"collection","settings":{"collection":"kids-girls-skirts-and-dresses","banner_image_desk":"shopify:\/\/shop_images\/Newsletter_PLP_Push_Desktop_Jan_2021_9b0d0077-b5cb-462b-93f1-482e6dcff0ab.jpg","banner_image_mobile":"shopify:\/\/shop_images\/Newsletter_PLP_Push_Mobile_Jan_2021_2ccf135a-2643-41ff-a450-b604a6255f38.jpg","banner_insert_count":"5","banner_link":"http:\/\/laco.st\/CuuLQfwJ"}},"3852b81c-f208-4790-99ad-d53191c8a803":{"type":"collection","settings":{"collection":"kids-girls-knitwear-and-sweatshirts","banner_image_desk":"shopify:\/\/shop_images\/Newsletter_PLP_Push_Desktop_Jan_2021_9b0d0077-b5cb-462b-93f1-482e6dcff0ab.jpg","banner_image_mobile":"shopify:\/\/shop_images\/Newsletter_PLP_Push_Mobile_Jan_2021_2ccf135a-2643-41ff-a450-b604a6255f38.jpg","banner_insert_count":"5","banner_link":"http:\/\/laco.st\/CuuLQfwJ"}},"4a1b1303-e36d-4cca-9317-f9185fbf1321":{"type":"collection","settings":{"collection":"kids-accessories-caps-and-hats","banner_image_desk":"shopify:\/\/shop_images\/Newsletter_PLP_Push_Desktop_Jan_2021_9b0d0077-b5cb-462b-93f1-482e6dcff0ab.jpg","banner_image_mobile":"shopify:\/\/shop_images\/Newsletter_PLP_Push_Mobile_Jan_2021_2ccf135a-2643-41ff-a450-b604a6255f38.jpg","banner_insert_count":"5","banner_link":"http:\/\/laco.st\/CuuLQfwJ"}},"c07f3698-1fb1-4d57-bed7-24b5c3d8eeff":{"type":"collection","settings":{"collection":"kids-accessories-socks","banner_image_desk":"shopify:\/\/shop_images\/Newsletter_PLP_Push_Desktop_Jan_2021_9b0d0077-b5cb-462b-93f1-482e6dcff0ab.jpg","banner_image_mobile":"shopify:\/\/shop_images\/Newsletter_PLP_Push_Mobile_Jan_2021_2ccf135a-2643-41ff-a450-b604a6255f38.jpg","banner_insert_count":"5","banner_link":"http:\/\/laco.st\/CuuLQfwJ"}},"62afa1aa-9707-4159-baee-99cc12da042c":{"type":"collection","settings":{"collection":"kids-trainers","banner_image_desk":"shopify:\/\/shop_images\/Newsletter_PLP_Push_Desktop_Jan_2021_9b0d0077-b5cb-462b-93f1-482e6dcff0ab.jpg","banner_image_mobile":"shopify:\/\/shop_images\/Newsletter_PLP_Push_Mobile_Jan_2021_2ccf135a-2643-41ff-a450-b604a6255f38.jpg","banner_insert_count":"5","banner_link":"http:\/\/laco.st\/CuuLQfwJ"}},"49bf3d67-6360-4c31-b170-8fcf7bebc088":{"type":"collection","settings":{"collection":"polos-shop","banner_image_desk":"shopify:\/\/shop_images\/SS21_L.12.21_Polo_Shop_PLP_Push_Desktop_031621.jpg","banner_image_mobile":"shopify:\/\/shop_images\/SS21_L.12.21_Polo_Shop_PLP_Push_Mobile_031621.jpg","banner_insert_count":"5","banner_link":"https:\/\/lacoste.com.ph\/products\/mens-lacoste-l1221-organic-cotton-pique-polo-shirt-s21"}}},"block_order":["c87faf9d-b3d8-49f0-865a-b4cefc87058f","708965f2-ea80-4ae7-b3d9-9a8d21769e21","1d32e529-39a4-43e7-beb9-99ca33a01414","66166a64-5675-4b82-befc-5f484f78f7ba","2c158671-870f-4565-9ac5-860b4caa7c88","a22be105-d715-4ee6-acf1-9bd711bc776d","4e64d64a-25a3-4787-ae22-0dbce1ad953e","cb6d27b2-98df-4fc0-b1de-da064813ccb3","20011041-cf30-4d9d-9677-cb7ceb2c5b52","b0ca4f4b-bcd0-450c-abb1-1122c9b1ff02","e1c3b330-4384-4be8-8a3a-6f3849cd43d3","a40d8bae-b986-4538-bf7d-da7cf770f4b3","d7bc2b28-a099-4d49-b85f-49c3af528717","a8904a98-3b82-42d8-b4db-f4df2ab825bc","d84984aa-66c3-4bc5-b493-bee59e4b456f","7a3179b1-74dd-4a7b-8d60-62b9681b1239","00cd23df-8778-47c7-a127-667cce5b733f","ec8bb5df-df1a-4568-9dc2-759271a64ff4","83ea31c2-5b42-413f-bfa9-3d7fca163cf7","76b38c22-a633-4262-bd90-73f04debcf68","24ad4227-5089-4cfb-a2ac-8a8db736dbcb","4186f4ed-24f3-435d-a196-5c3a15696054","293353a8-6cc1-41a2-8989-712a840a065f","27b455e2-5ac4-4a22-bf63-bca20c57e5c0","e60d1290-0299-4827-8bcc-d678b8c0b8dc","46f3bf6f-fdbd-4241-a43a-89146bc8a2b0","03dd5298-ced4-40e5-b3ab-9e375a9f1577","6b3de321-1934-4cd8-8545-f14a9804d1e7","9269fa6f-e34d-4869-9fe2-8e6d9965e136","de607a59-17f8-47d8-a6ee-ca56f6cebbfd","ef9d9d89-0c90-4a05-b841-ebbea5db523f","016616cb-1b75-4bec-a113-3391578053b2","0ffe3568-5bbf-47ef-bcc7-a7c81eb59227","c7ac4c45-baa9-4432-abfa-4e19b2bc263e","3deae8a5-d193-4c92-a097-4ccfd19d63dc","8a37aff2-9b6b-4770-b337-1d29ca9a2862","03ce4b83-26e0-423a-8488-d584b315f95f","6dbba757-d489-495a-b419-3be3904fb609","5b323918-f63e-4202-aacb-df19c1150d5a","8fb44a10-c842-4f1f-b05f-b379ddf096c3","bb0b79a5-6c92-405a-994c-321c4981ea2f","3852b81c-f208-4790-99ad-d53191c8a803","4a1b1303-e36d-4cca-9317-f9185fbf1321","c07f3698-1fb1-4d57-bed7-24b5c3d8eeff","62afa1aa-9707-4159-baee-99cc12da042c","49bf3d67-6360-4c31-b170-8fcf7bebc088"],"settings":{}},"16153749078030ebf1":{"type":"home-full-video-banner","settings":{"title":"<p style=\"color:white ; font-size:30px\">Lacoste x Ricky Regal <br> Exclusive Collaboration<\/p>","heading_color":"white","desktop_video":"https:\/\/cdn.shopify.com\/s\/files\/1\/0233\/9713\/8496\/files\/Cover_desk_2.mp4?v=1615326681","mobile_video":"https:\/\/cdn.shopify.com\/s\/files\/1\/0233\/9713\/8496\/files\/Cover_mob_b2cfc1ad-e7ae-432c-af6a-3484460d2121.mp4?v=1615326680","btn_text":"Explore","btn_link":"http:\/\/laco.st\/czELCkKO","button_color":"white"}},"16158580934e03cf25":{"type":"lacoste-inside-slider","blocks":{"5f318eb1-ab79-40c6-af23-c82957054971":{"type":"slider","settings":{"heading":"Lacoste Inside","enable_crocodile_logo":true,"content_color":"white","background_color":"#789873","media_type":"image","desktop_video_url":"","mobile_video_url":"","title":"L.12.21: The new classic Men's polo","subtitle":"L.12.12, 2021 STYLE","text":"Organic cotton, iconic cut, and distinctive new details: discover your new classic.","body_color":"lighter","button_label_1":"Take a closer look","button_link_1":"http:\/\/laco.st\/NYnyydql","button_label_2":"","button_color":"white","data_id":"","tracking_id":""}}},"block_order":["5f318eb1-ab79-40c6-af23-c82957054971"],"settings":{}}},"content_for_index":["16153749078030ebf1","1569898786742","1612922345529c69bb","1607558776bfd96548","16075576541692914a","16062013929f182372","1604971852f9b55fb5","1601448482324","1602713437937","1601448598796","1600131701909","1591341732818","1597766757483","1594259690102","1576835765275","1547978834047","1576733640027","1574822749096","1547979810678","1547987835963","1547990401868","1568865131249","1596764514069","1547993616737","16158580934e03cf25"]}}